[
  {
    "eventid": 197500000001,
    "iyear": 1975,
    "latitude": "33.594013",
    "longitude": "73.069077",
    "gname": "Unknown"
  },
  {
    "eventid": 197501000002,
    "nkill": 0,
    "iyear": 1975,
    "latitude": "40.465595",
    "longitude": "-3.696263",
    "gname": "First of October Antifascist Resistance Group (GRAPO)"
  },
  {
    "eventid": 197501000003,
    "iyear": 1975,
    "latitude": "40.465595",
    "longitude": "-3.696263",
    "gname": "First of October Antifascist Resistance Group (GRAPO)"
  },
  {
    "eventid": 197501000004,
    "iyear": 1975,
    "latitude": "40.465595",
    "longitude": "-3.696263",
    "gname": "First of October Antifascist Resistance Group (GRAPO)"
  },
  {
    "eventid": 197501000005,
    "nkill": 2,
    "iyear": 1975,
    "latitude": "51.504387",
    "longitude": "-0.140041",
    "gname": "Irish Republican Army (IRA)"
  },
  {
    "eventid": 197501000006,
    "nkill": 1,
    "iyear": 1975,
    "latitude": "",
    "longitude": "",
    "gname": "South Moluccans"
  },
  {
    "eventid": 197501000007,
    "iyear": 1975,
    "latitude": "51.504387",
    "longitude": "-0.140041",
    "gname": "Irish Republican Army (IRA)"
  },
  {
    "eventid": 197501030001,
    "nkill": 0,
    "iyear": 1975,
    "latitude": "36.201721",
    "longitude": "37.14352",
    "gname": "Popular Front for the Liberation of Palestine (PFLP)"
  },
  {
    "eventid": 197501030002,
    "nkill": 0,
    "iyear": 1975,
    "latitude": "36.201721",
    "longitude": "37.14352",
    "gname": "Popular Front for the Liberation of Palestine (PFLP)"
  },
  {
    "eventid": 197501040001,
    "iyear": 1975,
    "latitude": "39.96196",
    "longitude": "-83.002984",
    "gname": "Unknown"
  },
  {
    "eventid": 197501050001,
    "nkill": 0,
    "iyear": 1975,
    "latitude": "48.856644",
    "longitude": "2.34233",
    "gname": "International Revolutionary Action Group (GARI)"
  },
  {
    "eventid": 197501050002,
    "nkill": 0,
    "iyear": 1975,
    "latitude": "46.4892",
    "longitude": "7.21237",
    "gname": "Baader-Meinhof Group"
  },
  {
    "eventid": 197501110001,
    "nkill": 2,
    "iyear": 1975,
    "latitude": "18.386932",
    "longitude": "-66.061127",
    "gname": "Unknown"
  },
  {
    "eventid": 197501130001,
    "iyear": 1975,
    "latitude": "48.856644",
    "longitude": "2.34233",
    "gname": "Popular Front for the Liberation of Palestine (PFLP)"
  },
  {
    "eventid": 197501150001,
    "nkill": 0,
    "iyear": 1975,
    "latitude": "40.465595",
    "longitude": "-3.696263",
    "gname": "Unknown"
  },
  {
    "eventid": 197501150002,
    "nkill": 0,
    "iyear": 1975,
    "latitude": "36.32396",
    "longitude": "59.556959",
    "gname": "Unknown"
  },
  {
    "eventid": 197501150004,
    "iyear": 1975,
    "latitude": "40.465595",
    "longitude": "-3.696263",
    "gname": "Revolutionary Patriotic Anti-Fascist Front (FRAP)"
  },
  {
    "eventid": 197501190001,
    "iyear": 1975,
    "latitude": "48.856644",
    "longitude": "2.34233",
    "gname": "Popular Front for the Liberation of Palestine (PFLP)"
  },
  {
    "eventid": 197501190002,
    "nkill": 0,
    "iyear": 1975,
    "latitude": "40.697132",
    "longitude": "-73.931351",
    "gname": "Unknown"
  },
  {
    "eventid": 197501190003,
    "nkill": 1,
    "iyear": 1975,
    "latitude": "54.081638",
    "longitude": "-6.448779",
    "gname": "Irish Republican Army (IRA)"
  },
  {
    "eventid": 197501190004,
    "nkill": 4,
    "iyear": 1975,
    "latitude": "25.863042",
    "longitude": "85.781004",
    "gname": "Ananda Marga"
  },
  {
    "eventid": 197501200001,
    "iyear": 1975,
    "latitude": "33.888523",
    "longitude": "35.503513",
    "gname": "Armenian Secret Army for the Liberation of Armenia"
  },
  {
    "eventid": 197501210001,
    "nkill": 2,
    "iyear": 1975,
    "latitude": "54.607712",
    "longitude": "-5.95621",
    "gname": "Irish Republican Army (IRA)"
  },
  {
    "eventid": 197501240001,
    "nkill": 4,
    "iyear": 1975,
    "latitude": "40.697132",
    "longitude": "-73.931351",
    "gname": "Fuerzas Armadas de Liberacion Nacional (FALN)"
  },
  {
    "eventid": 197501250001,
    "nkill": 0,
    "iyear": 1975,
    "latitude": "37.791927",
    "longitude": "-122.225906",
    "gname": "Weather Underground, Weathermen"
  },
  {
    "eventid": 197501260001,
    "nkill": 1,
    "iyear": 1975,
    "latitude": "54.607712",
    "longitude": "-5.95621",
    "gname": "Irish Republican Army (IRA)"
  },
  {
    "eventid": 197501270001,
    "iyear": 1975,
    "latitude": "51.504387",
    "longitude": "-0.140041",
    "gname": "Irish Republican Army (IRA)"
  },
  {
    "eventid": 197501280001,
    "nkill": 0,
    "iyear": 1975,
    "latitude": "33.888523",
    "longitude": "35.503513",
    "gname": "Arab Communist Organization"
  },
  {
    "eventid": 197501280002,
    "nkill": 1,
    "iyear": 1975,
    "latitude": "19.6",
    "longitude": "-99.05",
    "gname": "23rd of September Communist League"
  },
  {
    "eventid": 197501290001,
    "nkill": 0,
    "iyear": 1975,
    "latitude": "38.908642",
    "longitude": "-77.015381",
    "gname": "Weather Underground, Weathermen"
  },
  {
    "eventid": 197501290002,
    "nkill": 1,
    "iyear": 1975,
    "latitude": "54.607712",
    "longitude": "-5.95621",
    "gname": "Ulster Freedom Fighters (UFF)"
  },
  {
    "eventid": 197501300001,
    "nkill": 0,
    "iyear": 1975,
    "latitude": "50.940664",
    "longitude": "6.959912",
    "gname": "Baader-Meinhof Group"
  },
  {
    "eventid": 197501310001,
    "nkill": 1,
    "iyear": 1975,
    "latitude": "54.50853",
    "longitude": "-6.763131",
    "gname": "Irish Republican Army (IRA)"
  },
  {
    "eventid": 197502000001,
    "nkill": 1,
    "iyear": 1975,
    "latitude": "-31.399301",
    "longitude": "-64.182129",
    "gname": "Montoneros (Argentina)"
  },
  {
    "eventid": 197502000002,
    "nkill": 0,
    "iyear": 1975,
    "latitude": "-1.28518",
    "longitude": "36.821107",
    "gname": "Maskini Liberation Front"
  },
  {
    "eventid": 197502000003,
    "iyear": 1975,
    "latitude": "41.400635",
    "longitude": "2.150913",
    "gname": "Unknown"
  },
  {
    "eventid": 197502000004,
    "iyear": 1975,
    "latitude": "36.529688",
    "longitude": "-6.292657",
    "gname": "Unknown"
  },
  {
    "eventid": 197502010001,
    "iyear": 1975,
    "latitude": "41.656285",
    "longitude": "-0.876533",
    "gname": "Unknown"
  },
  {
    "eventid": 197502010002,
    "nkill": 0,
    "iyear": 1975,
    "latitude": "40.697132",
    "longitude": "-73.931351",
    "gname": "Omega-7"
  },
  {
    "eventid": 197502030001,
    "nkill": 0,
    "iyear": 1975,
    "latitude": "37.338475",
    "longitude": "-121.885794",
    "gname": "New World Liberation Front (NWLF)"
  },
  {
    "eventid": 197502030002,
    "nkill": 0,
    "iyear": 1975,
    "latitude": "39.758968",
    "longitude": "-104.876305",
    "gname": "Continental Revolutionary Army"
  },
  {
    "eventid": 197502040001,
    "nkill": 0,
    "iyear": 1975,
    "latitude": "37.502165",
    "longitude": "-122.469989",
    "gname": "New World Liberation Front (NWLF)"
  },
  {
    "eventid": 197502040002,
    "nkill": 0,
    "iyear": 1975,
    "latitude": "37.791927",
    "longitude": "-122.225906",
    "gname": "New World Liberation Front (NWLF)"
  },
  {
    "eventid": 197502040003,
    "nkill": 0,
    "iyear": 1975,
    "latitude": "34.097866",
    "longitude": "-118.407379",
    "gname": "National Socialist Liberation Front"
  },
  {
    "eventid": 197502050001,
    "iyear": 1975,
    "latitude": "48.856644",
    "longitude": "2.34233",
    "gname": "International Revolutionary Solidarity"
  },
  {
    "eventid": 197502050002,
    "nkill": 0,
    "iyear": 1975,
    "latitude": "37.791927",
    "longitude": "-122.225906",
    "gname": "New World Liberation Front (NWLF)"
  },
  {
    "eventid": 197502060001,
    "nkill": 0,
    "iyear": 1975,
    "latitude": "37.755363",
    "longitude": "-122.443352",
    "gname": "New World Liberation Front (NWLF)"
  },
  {
    "eventid": 197502060002,
    "nkill": 0,
    "iyear": 1975,
    "latitude": "34.097866",
    "longitude": "-118.407379",
    "gname": "Cuban Action"
  },
  {
    "eventid": 197502060003,
    "nkill": 1,
    "iyear": 1975,
    "latitude": "54.855103",
    "longitude": "-5.811254",
    "gname": "Protestant extremists"
  },
  {
    "eventid": 197502060004,
    "nkill": 1,
    "iyear": 1975,
    "latitude": "55.042187",
    "longitude": "-6.684383",
    "gname": "Irish Republican Army (IRA)"
  },
  {
    "eventid": 197502070001,
    "nkill": 0,
    "iyear": 1975,
    "latitude": "33.888523",
    "longitude": "35.503513",
    "gname": "Prisoner  Gourgen Yanikian Group"
  },
  {
    "eventid": 197502080001,
    "nkill": 1,
    "iyear": 1975,
    "latitude": "34.006004",
    "longitude": "71.53743",
    "gname": "National Awami Party"
  },
  {
    "eventid": 197502080002,
    "nkill": 0,
    "iyear": 1975,
    "latitude": "48.856644",
    "longitude": "2.34233",
    "gname": "Baader-Meinhof Group"
  },
  {
    "eventid": 197502080003,
    "nkill": 1,
    "iyear": 1975,
    "latitude": "54.607712",
    "longitude": "-5.95621",
    "gname": "Ulster Volunteer Force (UVF)"
  },
  {
    "eventid": 197502090001,
    "iyear": 1975,
    "latitude": "50.940664",
    "longitude": "6.959912",
    "gname": "Unknown"
  },
  {
    "eventid": 197502090002,
    "iyear": 1975,
    "latitude": "53.553813",
    "longitude": "9.991586",
    "gname": "Unknown"
  },
  {
    "eventid": 197502090003,
    "nkill": 0,
    "iyear": 1975,
    "latitude": "46.198392",
    "longitude": "6.142296",
    "gname": "Unknown"
  },
  {
    "eventid": 197502090004,
    "nkill": 2,
    "iyear": 1975,
    "latitude": "54.607712",
    "longitude": "-5.95621",
    "gname": "Protestant extremists"
  },
  {
    "eventid": 197502100001,
    "nkill": 1,
    "iyear": 1975,
    "latitude": "54.607712",
    "longitude": "-5.95621",
    "gname": "Protestant extremists"
  },
  {
    "eventid": 197502100002,
    "nkill": 2,
    "iyear": 1975,
    "latitude": "54.594562",
    "longitude": "-6.931393",
    "gname": "Ulster Volunteer Force (UVF)"
  },
  {
    "eventid": 197502110001,
    "iyear": 1975,
    "latitude": "48.856644",
    "longitude": "2.34233",
    "gname": "New Order- France"
  },
  {
    "eventid": 197502110002,
    "iyear": 1975,
    "latitude": "48.856644",
    "longitude": "2.34233",
    "gname": "New Order- France"
  },
  {
    "eventid": 197502110003,
    "nkill": 0,
    "iyear": 1975,
    "latitude": "33.266151",
    "longitude": "35.214058",
    "gname": "Arab Communist Organization"
  },
  {
    "eventid": 197502110004,
    "nkill": 0,
    "iyear": 1975,
    "latitude": "40.663517",
    "longitude": "-74.211467",
    "gname": "Cuban Action"
  },
  {
    "eventid": 197502110005,
    "nkill": 1,
    "iyear": 1975,
    "latitude": "54.542956",
    "longitude": "-6.926293",
    "gname": "Irish Republican Army (IRA)"
  },
  {
    "eventid": 197502120001,
    "nkill": 0,
    "iyear": 1975,
    "latitude": "47.997542",
    "longitude": "-4.097899",
    "gname": "Breton Liberation Front (FLB)"
  },
  {
    "eventid": 197502120002,
    "nkill": 0,
    "iyear": 1975,
    "latitude": "41.890961",
    "longitude": "12.490069",
    "gname": "Armed Proletarian Nuclei (NAP)"
  },
  {
    "eventid": 197502120003,
    "iyear": 1975,
    "latitude": "41.400635",
    "longitude": "2.150913",
    "gname": "Unknown"
  },
  {
    "eventid": 197502130001,
    "nkill": 2,
    "iyear": 1975,
    "latitude": "2.756736",
    "longitude": "-76.629934",
    "gname": "National Liberation Army of Colombia (ELN)"
  },
  {
    "eventid": 197502140002,
    "nkill": 1,
    "iyear": 1975,
    "latitude": "55.129345",
    "longitude": "-6.663439",
    "gname": "Ulster Volunteer Force (UVF)"
  },
  {
    "eventid": 197502160001,
    "iyear": 1975,
    "latitude": "25.774591",
    "longitude": "-80.214195",
    "gname": "Unknown"
  },
  {
    "eventid": 197502170001,
    "iyear": 1975,
    "latitude": "33.888523",
    "longitude": "35.503513",
    "gname": "Unknown"
  },
  {
    "eventid": 197502180001,
    "iyear": 1975,
    "latitude": "41.656285",
    "longitude": "-0.876533",
    "gname": "Unknown"
  },
  {
    "eventid": 197502180002,
    "nkill": 0,
    "iyear": 1975,
    "latitude": "41.890961",
    "longitude": "12.490069",
    "gname": "Red Brigades"
  },
  {
    "eventid": 197502190001,
    "nkill": 1,
    "iyear": 1975,
    "latitude": "54.463367",
    "longitude": "-6.328597",
    "gname": "Protestant extremists"
  },
  {
    "eventid": 197502200001,
    "nkill": 0,
    "iyear": 1975,
    "latitude": "33.888523",
    "longitude": "35.503513",
    "gname": "Armenian Secret Army for the Liberation of Armenia"
  },
  {
    "eventid": 197502200002,
    "nkill": 1,
    "iyear": 1975,
    "latitude": "54.607712",
    "longitude": "-5.95621",
    "gname": "Protestant extremists"
  },
  {
    "eventid": 197502200003,
    "nkill": 1,
    "iyear": 1975,
    "latitude": "54.607712",
    "longitude": "-5.95621",
    "gname": "Official Irish Republican Army (OIRA)"
  },
  {
    "eventid": 197502200004,
    "nkill": 1,
    "iyear": 1975,
    "latitude": "54.607712",
    "longitude": "-5.95621",
    "gname": "Ulster Freedom Fighters (UFF)"
  },
  {
    "eventid": 197502210001,
    "nkill": 0,
    "iyear": 1975,
    "latitude": "-32.951052",
    "longitude": "-60.666365",
    "gname": "Ejercito Revolucionaria del Pueblo (ERP) (Argentina)"
  },
  {
    "eventid": 197502210002,
    "nkill": 0,
    "iyear": 1975,
    "latitude": "-32.951052",
    "longitude": "-60.666365",
    "gname": "Ejercito Revolucionaria del Pueblo (ERP) (Argentina)"
  },
  {
    "eventid": 197502210003,
    "nkill": 0,
    "iyear": 1975,
    "latitude": "-32.951052",
    "longitude": "-60.666365",
    "gname": "Montoneros (Argentina)"
  },
  {
    "eventid": 197502210004,
    "nkill": 0,
    "iyear": 1975,
    "latitude": "-32.951052",
    "longitude": "-60.666365",
    "gname": "Ejercito Revolucionaria del Pueblo (ERP) (Argentina)"
  },
  {
    "eventid": 197502210005,
    "nkill": 0,
    "iyear": 1975,
    "latitude": "-32.951052",
    "longitude": "-60.666365",
    "gname": "Ejercito Revolucionaria del Pueblo (ERP) (Argentina)"
  },
  {
    "eventid": 197502210006,
    "nkill": 0,
    "iyear": 1975,
    "latitude": "-32.951052",
    "longitude": "-60.666365",
    "gname": "Ejercito Revolucionaria del Pueblo (ERP) (Argentina)"
  },
  {
    "eventid": 197502210007,
    "iyear": 1975,
    "latitude": "-31.399301",
    "longitude": "-64.182129",
    "gname": "Ejercito Revolucionaria del Pueblo (ERP) (Argentina)"
  },
  {
    "eventid": 197502210008,
    "nkill": 1,
    "iyear": 1975,
    "latitude": "25.774591",
    "longitude": "-80.214195",
    "gname": "Movement for Cuban Justice (Pragmatistas)"
  },
  {
    "eventid": 197502240001,
    "iyear": 1975,
    "latitude": "25.774591",
    "longitude": "-80.214195",
    "gname": "Unknown"
  },
  {
    "eventid": 197502250001,
    "nkill": 1,
    "iyear": 1975,
    "latitude": "54.607712",
    "longitude": "-5.95621",
    "gname": "Irish National Liberation Army (INLA)"
  },
  {
    "eventid": 197502250002,
    "nkill": 1,
    "iyear": 1975,
    "latitude": "54.607712",
    "longitude": "-5.95621",
    "gname": "Protestant extremists"
  },
  {
    "eventid": 197502250003,
    "nkill": 0,
    "iyear": 1975,
    "latitude": "18.386932",
    "longitude": "-66.061127",
    "gname": "Cuban Exiles"
  },
  {
    "eventid": 197502260001,
    "nkill": 1,
    "iyear": 1975,
    "latitude": "-31.399301",
    "longitude": "-64.182129",
    "gname": "Montoneros (Argentina)"
  },
  {
    "eventid": 197502260002,
    "nkill": 0,
    "iyear": 1975,
    "latitude": "34.097866",
    "longitude": "-118.407379",
    "gname": "Cuban Action"
  },
  {
    "eventid": 197502260003,
    "nkill": 1,
    "iyear": 1975,
    "latitude": "51.504387",
    "longitude": "-0.140041",
    "gname": "Irish Republican Army (IRA)"
  },
  {
    "eventid": 197502270001,
    "nkill": 0,
    "iyear": 1975,
    "latitude": "",
    "longitude": "",
    "gname": "2nd of June Movement"
  },
  {
    "eventid": 197502270002,
    "iyear": 1975,
    "latitude": "43.258434",
    "longitude": "-2.921819",
    "gname": "Basque Fatherland and Freedom (ETA)"
  },
  {
    "eventid": 197502270003,
    "nkill": 1,
    "iyear": 1975,
    "latitude": "54.607712",
    "longitude": "-5.95621",
    "gname": "Irish Republican Extremists"
  },
  {
    "eventid": 197502270004,
    "nkill": 1,
    "iyear": 1975,
    "latitude": "54.607712",
    "longitude": "-5.95621",
    "gname": "Ulster Volunteer Force (UVF)"
  },
  {
    "eventid": 197502280001,
    "iyear": 1975,
    "latitude": "35.689125",
    "longitude": "139.747742",
    "gname": "East Asia Anti Japanese Armed Front"
  },
  {
    "eventid": 197502280002,
    "nkill": 1,
    "iyear": 1975,
    "latitude": "54.607712",
    "longitude": "-5.95621",
    "gname": "Protestant extremists"
  },
  {
    "eventid": 197502280003,
    "nkill": 1,
    "iyear": 1975,
    "latitude": "54.607712",
    "longitude": "-5.95621",
    "gname": "Irish Republican Extremists"
  },
  {
    "eventid": 197503000001,
    "nkill": 0,
    "iyear": 1975,
    "latitude": "34.707332",
    "longitude": "33.023397",
    "gname": "National Organization of Cypriot Fighters (EOKA)"
  },
  {
    "eventid": 197503000002,
    "iyear": 1975,
    "latitude": "40.465595",
    "longitude": "-3.696263",
    "gname": "Unknown"
  },
  {
    "eventid": 197503000003,
    "iyear": 1975,
    "latitude": "42.815372",
    "longitude": "-1.653616",
    "gname": "Basque Fatherland and Freedom (ETA)"
  },
  {
    "eventid": 197503000004,
    "iyear": 1975,
    "latitude": "41.400635",
    "longitude": "2.150913",
    "gname": "Unknown"
  },
  {
    "eventid": 197503000005,
    "iyear": 1975,
    "latitude": "41.560953",
    "longitude": "2.01044",
    "gname": "Unknown"
  },
  {
    "eventid": 197503000006,
    "nkill": 0,
    "iyear": 1975,
    "latitude": "28.475562",
    "longitude": "-16.267372",
    "gname": "Canary Islands Independence Movement"
  },
  {
    "eventid": 197503000007,
    "iyear": 1975,
    "latitude": "43.378918",
    "longitude": "-2.983002",
    "gname": "Unknown"
  },
  {
    "eventid": 197503000008,
    "iyear": 1975,
    "latitude": "3.68209",
    "longitude": "-73.52716",
    "gname": "Revolutionary Armed Forces of Colombia (FARC)"
  },
  {
    "eventid": 197503010001,
    "nkill": 27,
    "iyear": 1975,
    "latitude": "-1.28518",
    "longitude": "36.821107",
    "gname": "Maskini Liberation Front"
  },
  {
    "eventid": 197503010002,
    "nkill": 0,
    "iyear": 1975,
    "latitude": "36.354145",
    "longitude": "43.14357",
    "gname": "Unknown"
  },
  {
    "eventid": 197503020001,
    "nkill": 0,
    "iyear": 1975,
    "latitude": "41.316485",
    "longitude": "-73.093371",
    "gname": "Weather Underground, Weathermen"
  },
  {
    "eventid": 197503020002,
    "nkill": 0,
    "iyear": 1975,
    "latitude": "45.764043",
    "longitude": "4.835659",
    "gname": "Unknown"
  },
  {
    "eventid": 197503030001,
    "nkill": 1,
    "iyear": 1975,
    "latitude": "35.724533",
    "longitude": "51.40519",
    "gname": "Mujahedin-e Khalq (MEK)"
  },
  {
    "eventid": 197503030002,
    "nkill": 0,
    "iyear": 1975,
    "latitude": "49.898814",
    "longitude": "10.902764",
    "gname": "Revolutionary Cells"
  },
  {
    "eventid": 197503040002,
    "nkill": 0,
    "iyear": 1975,
    "latitude": "34.707332",
    "longitude": "33.023397",
    "gname": "National Organization of Cypriot Fighters (EOKA)"
  },
  {
    "eventid": 197503040003,
    "nkill": 0,
    "iyear": 1975,
    "latitude": "49.008085",
    "longitude": "8.403756",
    "gname": "Unknown"
  },
  {
    "eventid": 197503040004,
    "nkill": 1,
    "iyear": 1975,
    "latitude": "54.607712",
    "longitude": "-5.95621",
    "gname": "Protestant extremists"
  },
  {
    "eventid": 197503050001,
    "nkill": 1,
    "iyear": 1975,
    "latitude": "35.724533",
    "longitude": "51.40519",
    "gname": "Unknown"
  },
  {
    "eventid": 197503050002,
    "nkill": 18,
    "iyear": 1975,
    "latitude": "32.08297",
    "longitude": "34.811886",
    "gname": "Popular Front for the Liberation of Palestine (PFLP)"
  },
  {
    "eventid": 197503060001,
    "nkill": 0,
    "iyear": 1975,
    "latitude": "-34.68631",
    "longitude": "-58.528473",
    "gname": "Montoneros (Argentina)"
  },
  {
    "eventid": 197503060002,
    "nkill": 0,
    "iyear": 1975,
    "latitude": "48.856644",
    "longitude": "2.34233",
    "gname": "Sixth of March Group"
  },
  {
    "eventid": 197503060003,
    "nkill": 1,
    "iyear": 1975,
    "latitude": "54.42071",
    "longitude": "-6.443767",
    "gname": "Irish Republican Extremists"
  },
  {
    "eventid": 197503080001,
    "iyear": 1975,
    "latitude": "-34.68631",
    "longitude": "-58.528473",
    "gname": "Montoneros (Argentina)"
  },
  {
    "eventid": 197503080002,
    "nkill": 0,
    "iyear": 1975,
    "latitude": "10.482834",
    "longitude": "-66.962128",
    "gname": "Red Flag (Venezuela)"
  },
  {
    "eventid": 197503080003,
    "nkill": 1,
    "iyear": 1975,
    "latitude": "54.607712",
    "longitude": "-5.95621",
    "gname": "Ulster Volunteer Force (UVF)"
  },
  {
    "eventid": 197503100001,
    "nkill": 0,
    "iyear": 1975,
    "latitude": "41.106178",
    "longitude": "28.689863",
    "gname": "Mahir Cayan Suicide Group"
  },
  {
    "eventid": 197503100002,
    "nkill": 0,
    "iyear": 1975,
    "latitude": "37.338475",
    "longitude": "-121.885794",
    "gname": "Chicano Liberation Front"
  },
  {
    "eventid": 197503100003,
    "nkill": 0,
    "iyear": 1975,
    "latitude": "37.338475",
    "longitude": "-121.885794",
    "gname": "Chicano Liberation Front"
  },
  {
    "eventid": 197503100004,
    "nkill": 0,
    "iyear": 1975,
    "latitude": "37.755363",
    "longitude": "-122.443352",
    "gname": "Chicano Liberation Front"
  },
  {
    "eventid": 197503120001,
    "nkill": 0,
    "iyear": 1975,
    "latitude": "37.625511",
    "longitude": "-122.432556",
    "gname": "New World Liberation Front (NWLF)"
  },
  {
    "eventid": 197503120002,
    "iyear": 1975,
    "latitude": "",
    "longitude": "",
    "gname": "National Liberation Army of Colombia (ELN)"
  },
  {
    "eventid": 197503120003,
    "nkill": 1,
    "iyear": 1975,
    "latitude": "54.607712",
    "longitude": "-5.95621",
    "gname": "Irish Republican Extremists"
  },
  {
    "eventid": 197503130001,
    "nkill": 0,
    "iyear": 1975,
    "latitude": "40.465595",
    "longitude": "-3.696263",
    "gname": "Unknown"
  },
  {
    "eventid": 197503130002,
    "iyear": 1975,
    "latitude": "28.291564",
    "longitude": "-16.62913",
    "gname": "Unknown"
  },
  {
    "eventid": 197503130003,
    "nkill": 2,
    "iyear": 1975,
    "latitude": "54.607712",
    "longitude": "-5.95621",
    "gname": "Ulster Volunteer Force (UVF)"
  },
  {
    "eventid": 197503150001,
    "nkill": 2,
    "iyear": 1975,
    "latitude": "54.607712",
    "longitude": "-5.95621",
    "gname": "Ulster Volunteer Force (UVF)"
  },
  {
    "eventid": 197503160001,
    "nkill": 1,
    "iyear": 1975,
    "latitude": "54.65548",
    "longitude": "-5.674815",
    "gname": "Ulster Volunteer Force (UVF)"
  },
  {
    "eventid": 197503170001,
    "nkill": 1,
    "iyear": 1975,
    "latitude": "35.724533",
    "longitude": "51.40519",
    "gname": "Mujahedin-e Khalq (MEK)"
  },
  {
    "eventid": 197503170002,
    "iyear": 1975,
    "latitude": "-34.68631",
    "longitude": "-58.528473",
    "gname": "Unknown"
  },
  {
    "eventid": 197503180001,
    "nkill": 1,
    "iyear": 1975,
    "latitude": "-15.415393",
    "longitude": "28.284354",
    "gname": "Unknown"
  },
  {
    "eventid": 197503180002,
    "iyear": 1975,
    "latitude": "35.724533",
    "longitude": "51.40519",
    "gname": "Unknown"
  },
  {
    "eventid": 197503200001,
    "nkill": 0,
    "iyear": 1975,
    "latitude": "37.625511",
    "longitude": "-122.432556",
    "gname": "New World Liberation Front (NWLF)"
  },
  {
    "eventid": 197503200002,
    "nkill": 0,
    "iyear": 1975,
    "latitude": "37.625511",
    "longitude": "-122.432556",
    "gname": "New World Liberation Front (NWLF)"
  },
  {
    "eventid": 197503200003,
    "nkill": 0,
    "iyear": 1975,
    "latitude": "37.625511",
    "longitude": "-122.432556",
    "gname": "New World Liberation Front (NWLF)"
  },
  {
    "eventid": 197503200004,
    "nkill": 0,
    "iyear": 1975,
    "latitude": "37.625511",
    "longitude": "-122.432556",
    "gname": "New World Liberation Front (NWLF)"
  },
  {
    "eventid": 197503200005,
    "nkill": 0,
    "iyear": 1975,
    "latitude": "37.625511",
    "longitude": "-122.432556",
    "gname": "New World Liberation Front (NWLF)"
  },
  {
    "eventid": 197503200006,
    "nkill": 0,
    "iyear": 1975,
    "latitude": "37.625511",
    "longitude": "-122.432556",
    "gname": "New World Liberation Front (NWLF)"
  },
  {
    "eventid": 197503220001,
    "iyear": 1975,
    "latitude": "-34.61768",
    "longitude": "-58.444435",
    "gname": "Unknown"
  },
  {
    "eventid": 197503240001,
    "nkill": 0,
    "iyear": 1975,
    "latitude": "40.697132",
    "longitude": "-73.931351",
    "gname": "Unknown"
  },
  {
    "eventid": 197503240002,
    "iyear": 1975,
    "latitude": "-33.227212",
    "longitude": "-60.32987",
    "gname": "Montoneros (Argentina)"
  },
  {
    "eventid": 197503250001,
    "nkill": 0,
    "iyear": 1975,
    "latitude": "2.059819",
    "longitude": "45.326115",
    "gname": "Front for the Liberation of the French Somali Coast"
  },
  {
    "eventid": 197503250002,
    "iyear": 1975,
    "latitude": "-34.61768",
    "longitude": "-58.444435",
    "gname": "Unknown"
  },
  {
    "eventid": 197503250003,
    "iyear": 1975,
    "latitude": "43.192866",
    "longitude": "-3.196942",
    "gname": "Revolutionary Patriotic Anti-Fascist Front (FRAP)"
  },
  {
    "eventid": 197503250004,
    "iyear": 1975,
    "latitude": "42.815372",
    "longitude": "-1.653616",
    "gname": "Revolutionary Patriotic Anti-Fascist Front (FRAP)"
  },
  {
    "eventid": 197503250005,
    "iyear": 1975,
    "latitude": "43.31137",
    "longitude": "-3.055952",
    "gname": "Revolutionary Patriotic Anti-Fascist Front (FRAP)"
  },
  {
    "eventid": 197503270001,
    "nkill": 0,
    "iyear": 1975,
    "latitude": "43.066932",
    "longitude": "-2.167393",
    "gname": "Basque Fatherland and Freedom (ETA)"
  },
  {
    "eventid": 197503270002,
    "iyear": 1975,
    "latitude": "43.317073",
    "longitude": "-2.678975",
    "gname": "Unknown"
  },
  {
    "eventid": 197503270003,
    "iyear": 1975,
    "latitude": "43.317073",
    "longitude": "-2.678975",
    "gname": "Unknown"
  },
  {
    "eventid": 197503270004,
    "iyear": 1975,
    "latitude": "43.317073",
    "longitude": "-2.678975",
    "gname": "Unknown"
  },
  {
    "eventid": 197503270005,
    "iyear": 1975,
    "latitude": "43.258434",
    "longitude": "-2.921819",
    "gname": "Basque Fatherland and Freedom (ETA)"
  },
  {
    "eventid": 197503270006,
    "iyear": 1975,
    "latitude": "43.054361",
    "longitude": "-2.333641",
    "gname": "Basque Fatherland and Freedom (ETA)"
  },
  {
    "eventid": 197503270007,
    "nkill": 0,
    "iyear": 1975,
    "latitude": "37.874043",
    "longitude": "-122.280022",
    "gname": "Red Guerilla Family"
  },
  {
    "eventid": 197503270008,
    "nkill": 0,
    "iyear": 1975,
    "latitude": "34.097866",
    "longitude": "-118.407379",
    "gname": "Cuban Action"
  },
  {
    "eventid": 197503270009,
    "nkill": 0,
    "iyear": 1975,
    "latitude": "34.097866",
    "longitude": "-118.407379",
    "gname": "Cuban Action"
  },
  {
    "eventid": 197503270010,
    "nkill": 0,
    "iyear": 1975,
    "latitude": "37.338475",
    "longitude": "-121.885794",
    "gname": "New World Liberation Front (NWLF)"
  },
  {
    "eventid": 197503290001,
    "nkill": 1,
    "iyear": 1975,
    "latitude": "43.291618",
    "longitude": "-1.977903",
    "gname": "Basque Fatherland and Freedom (ETA)"
  },
  {
    "eventid": 197503290002,
    "iyear": 1975,
    "latitude": "-34.68631",
    "longitude": "-58.528473",
    "gname": "Unknown"
  },
  {
    "eventid": 197503290003,
    "nkill": 0,
    "iyear": 1975,
    "latitude": "38.579065",
    "longitude": "-121.491014",
    "gname": "New World Liberation Front (NWLF)"
  },
  {
    "eventid": 197503290004,
    "nkill": 2,
    "iyear": 1975,
    "latitude": "5.65712",
    "longitude": "-74.18078",
    "gname": "Revolutionary Armed Forces of Colombia (FARC)"
  },
  {
    "eventid": 197503300001,
    "nkill": 0,
    "iyear": 1975,
    "latitude": "45.764043",
    "longitude": "4.835659",
    "gname": "Croatian Nationalists"
  },
  {
    "eventid": 197503300002,
    "nkill": 0,
    "iyear": 1975,
    "latitude": "25.774591",
    "longitude": "-80.214195",
    "gname": "Unknown"
  },
  {
    "eventid": 197503310001,
    "iyear": 1975,
    "latitude": "43.236922",
    "longitude": "-2.149008",
    "gname": "Basque Fatherland and Freedom (ETA)"
  },
  {
    "eventid": 197503310002,
    "iyear": 1975,
    "latitude": "43.280364",
    "longitude": "-2.171588",
    "gname": "Basque Fatherland and Freedom (ETA)"
  },
  {
    "eventid": 197503310003,
    "iyear": 1975,
    "latitude": "43.278322",
    "longitude": "-2.126597",
    "gname": "Basque Fatherland and Freedom (ETA)"
  },
  {
    "eventid": 197504000001,
    "iyear": 1975,
    "latitude": "40.465595",
    "longitude": "-3.696263",
    "gname": "Unknown"
  },
  {
    "eventid": 197504000002,
    "iyear": 1975,
    "latitude": "41.652943",
    "longitude": "-4.728381",
    "gname": "Basque Fatherland and Freedom (ETA)"
  },
  {
    "eventid": 197504000003,
    "iyear": 1975,
    "latitude": "39.470239",
    "longitude": "-0.376805",
    "gname": "Unknown"
  },
  {
    "eventid": 197504010001,
    "nkill": 1,
    "iyear": 1975,
    "latitude": "54.42071",
    "longitude": "-6.443767",
    "gname": "Protestant extremists"
  },
  {
    "eventid": 197504010002,
    "nkill": 1,
    "iyear": 1975,
    "latitude": "54.713641",
    "longitude": "-5.808233",
    "gname": "Protestant extremists"
  },
  {
    "eventid": 197504020001,
    "nkill": 0,
    "iyear": 1975,
    "latitude": "40.697132",
    "longitude": "-73.931351",
    "gname": "Fuerzas Armadas de Liberacion Nacional (FALN)"
  },
  {
    "eventid": 197504020002,
    "nkill": 0,
    "iyear": 1975,
    "latitude": "40.697132",
    "longitude": "-73.931351",
    "gname": "Fuerzas Armadas de Liberacion Nacional (FALN)"
  },
  {
    "eventid": 197504020003,
    "nkill": 0,
    "iyear": 1975,
    "latitude": "40.697132",
    "longitude": "-73.931351",
    "gname": "Fuerzas Armadas de Liberacion Nacional (FALN)"
  },
  {
    "eventid": 197504020004,
    "nkill": 0,
    "iyear": 1975,
    "latitude": "40.697132",
    "longitude": "-73.931351",
    "gname": "Fuerzas Armadas de Liberacion Nacional (FALN)"
  },
  {
    "eventid": 197504020005,
    "nkill": 0,
    "iyear": 1975,
    "latitude": "40.697132",
    "longitude": "-73.931351",
    "gname": "Fuerzas Armadas de Liberacion Nacional (FALN)"
  },
  {
    "eventid": 197504030002,
    "nkill": 1,
    "iyear": 1975,
    "latitude": "54.42071",
    "longitude": "-6.443767",
    "gname": "Protestant extremists"
  },
  {
    "eventid": 197504030003,
    "nkill": 1,
    "iyear": 1975,
    "latitude": "54.607712",
    "longitude": "-5.95621",
    "gname": "Irish Republican Extremists"
  },
  {
    "eventid": 197504030004,
    "nkill": 0,
    "iyear": 1975,
    "latitude": "34.097866",
    "longitude": "-118.407379",
    "gname": "Cuban Action"
  },
  {
    "eventid": 197504040001,
    "iyear": 1975,
    "latitude": "-31.399301",
    "longitude": "-64.182129",
    "gname": "Argentine National Organization Movement (MANO)"
  },
  {
    "eventid": 197504040003,
    "nkill": 0,
    "iyear": 1975,
    "latitude": "37.755363",
    "longitude": "-122.443352",
    "gname": "Red Guerilla Family"
  },
  {
    "eventid": 197504050001,
    "nkill": 0,
    "iyear": 1975,
    "latitude": "34.097866",
    "longitude": "-118.407379",
    "gname": "Jewish Extremists"
  },
  {
    "eventid": 197504050003,
    "nkill": 2,
    "iyear": 1975,
    "latitude": "54.607712",
    "longitude": "-5.95621",
    "gname": "Protestant extremists"
  },
  {
    "eventid": 197504050004,
    "nkill": 5,
    "iyear": 1975,
    "latitude": "54.607712",
    "longitude": "-5.95621",
    "gname": "Irish Republican Extremists"
  },
  {
    "eventid": 197504050005,
    "nkill": 1,
    "iyear": 1975,
    "latitude": "54.607712",
    "longitude": "-5.95621",
    "gname": "Protestant extremists"
  },
  {
    "eventid": 197504050006,
    "nkill": 0,
    "iyear": 1975,
    "latitude": "34.097866",
    "longitude": "-118.407379",
    "gname": "Jewish Defense League (JDL)"
  },
  {
    "eventid": 197504060001,
    "nkill": 1,
    "iyear": 1975,
    "latitude": "54.607712",
    "longitude": "-5.95621",
    "gname": "Official Irish Republican Army (OIRA)"
  },
  {
    "eventid": 197504070001,
    "iyear": 1975,
    "latitude": "52.50153",
    "longitude": "13.401851",
    "gname": "Unknown"
  },
  {
    "eventid": 197504070002,
    "iyear": 1975,
    "latitude": "",
    "longitude": "",
    "gname": "National Liberation Army of Colombia (ELN)"
  },
  {
    "eventid": 197504070003,
    "nkill": 1,
    "iyear": 1975,
    "latitude": "54.607712",
    "longitude": "-5.95621",
    "gname": "Irish Republican Extremists"
  },
  {
    "eventid": 197504070004,
    "nkill": 1,
    "iyear": 1975,
    "latitude": "54.607712",
    "longitude": "-5.95621",
    "gname": "Protestant extremists"
  },
  {
    "eventid": 197504070005,
    "nkill": 2,
    "iyear": 1975,
    "latitude": "54.751202",
    "longitude": "-5.71626",
    "gname": "Ulster Volunteer Force (UVF)"
  },
  {
    "eventid": 197504080001,
    "nkill": 0,
    "iyear": 1975,
    "latitude": "37.338475",
    "longitude": "-121.885794",
    "gname": "New World Liberation Front (NWLF)"
  },
  {
    "eventid": 197504090001,
    "nkill": 0,
    "iyear": 1975,
    "latitude": "-11.967368",
    "longitude": "-76.978462",
    "gname": "Revolutionary Vanguard"
  },
  {
    "eventid": 197504100001,
    "nkill": 0,
    "iyear": 1975,
    "latitude": "48.856644",
    "longitude": "2.34233",
    "gname": "Charles Martel Group"
  },
  {
    "eventid": 197504100002,
    "nkill": 0,
    "iyear": 1975,
    "latitude": "40.697132",
    "longitude": "-73.931351",
    "gname": "Jewish Defense League (JDL)"
  },
  {
    "eventid": 197504110001,
    "nkill": 0,
    "iyear": 1975,
    "latitude": "-4.041179",
    "longitude": "39.677612",
    "gname": "Maskini Liberation Front"
  },
  {
    "eventid": 197504110002,
    "nkill": 0,
    "iyear": 1975,
    "latitude": "29.347702",
    "longitude": "47.94912",
    "gname": "Arab Communist Organization"
  },
  {
    "eventid": 197504120001,
    "nkill": 1,
    "iyear": 1975,
    "latitude": "54.607712",
    "longitude": "-5.95621",
    "gname": "Irish National Liberation Army (INLA)"
  },
  {
    "eventid": 197504120002,
    "nkill": 6,
    "iyear": 1975,
    "latitude": "54.607712",
    "longitude": "-5.95621",
    "gname": "Ulster Volunteer Force (UVF)"
  },
  {
    "eventid": 197504120003,
    "nkill": 1,
    "iyear": 1975,
    "latitude": "54.607712",
    "longitude": "-5.95621",
    "gname": "Irish Republican Extremists"
  },
  {
    "eventid": 197504120004,
    "nkill": 1,
    "iyear": 1975,
    "latitude": "54.414416",
    "longitude": "-6.976641",
    "gname": "Protestant extremists"
  },
  {
    "eventid": 197504130001,
    "nkill": 22,
    "iyear": 1975,
    "latitude": "33.802845",
    "longitude": "35.589649",
    "gname": "Phalange"
  },
  {
    "eventid": 197504130002,
    "iyear": 1975,
    "latitude": "-32.951052",
    "longitude": "-60.666365",
    "gname": "Montoneros (Argentina)"
  },
  {
    "eventid": 197504130003,
    "nkill": 0,
    "iyear": 1975,
    "latitude": "34.097866",
    "longitude": "-118.407379",
    "gname": "Cuban Action"
  },
  {
    "eventid": 197504180001,
    "nkill": 0,
    "iyear": 1975,
    "latitude": "-37.997567",
    "longitude": "-57.54823",
    "gname": "Unknown"
  },
  {
    "eventid": 197504190001,
    "nkill": 0,
    "iyear": 1975,
    "latitude": "35.689125",
    "longitude": "139.747742",
    "gname": "East Asia Anti Japanese Armed Front"
  },
  {
    "eventid": 197504210001,
    "nkill": 0,
    "iyear": 1975,
    "latitude": "38.579065",
    "longitude": "-121.491014",
    "gname": "Symbionese Liberation Army (SLA)"
  },
  {
    "eventid": 197504210002,
    "nkill": 1,
    "iyear": 1975,
    "latitude": "38.579065",
    "longitude": "-121.491014",
    "gname": "Symbionese Liberation Army (SLA)"
  },
  {
    "eventid": 197504210003,
    "nkill": 3,
    "iyear": 1975,
    "latitude": "54.50853",
    "longitude": "-6.763131",
    "gname": "Protestant extremists"
  },
  {
    "eventid": 197504240001,
    "nkill": 3,
    "iyear": 1975,
    "latitude": "59.332788",
    "longitude": "18.064488",
    "gname": "Socialist Patients' Collective (SPK)"
  },
  {
    "eventid": 197504250001,
    "nkill": 1,
    "iyear": 1975,
    "latitude": "-34.61768",
    "longitude": "-58.444435",
    "gname": "Unknown"
  },
  {
    "eventid": 197504250002,
    "nkill": 12,
    "iyear": 1975,
    "latitude": "19.371887",
    "longitude": "-99.086624",
    "gname": "23rd of September Communist League"
  },
  {
    "eventid": 197504250003,
    "nkill": 1,
    "iyear": 1975,
    "latitude": "54.42071",
    "longitude": "-6.443767",
    "gname": "Irish Republican Extremists"
  },
  {
    "eventid": 197504270001,
    "nkill": 3,
    "iyear": 1975,
    "latitude": "54.463367",
    "longitude": "-6.328597",
    "gname": "Protestant extremists"
  },
  {
    "eventid": 197504280001,
    "nkill": 0,
    "iyear": 1975,
    "latitude": "39.758968",
    "longitude": "-104.876305",
    "gname": "Unknown"
  },
  {
    "eventid": 197504280002,
    "nkill": 1,
    "iyear": 1975,
    "latitude": "54.607712",
    "longitude": "-5.95621",
    "gname": "Irish National Liberation Army (INLA)"
  },
  {
    "eventid": 197504280003,
    "nkill": 1,
    "iyear": 1975,
    "latitude": "54.607712",
    "longitude": "-5.95621",
    "gname": "People's Liberation Army (Northern Ireland)"
  },
  {
    "eventid": 197504280004,
    "nkill": 0,
    "iyear": 1975,
    "latitude": "39.758968",
    "longitude": "-104.876305",
    "gname": "Unknown"
  },
  {
    "eventid": 197504290001,
    "iyear": 1975,
    "latitude": "52.50153",
    "longitude": "13.401851",
    "gname": "Revolutionary Cells"
  },
  {
    "eventid": 197504300001,
    "iyear": 1975,
    "latitude": "49.477613",
    "longitude": "8.445092",
    "gname": "Unknown"
  },
  {
    "eventid": 197504300002,
    "iyear": 1975,
    "latitude": "49.993038",
    "longitude": "8.247247",
    "gname": "Revolutionary Cells"
  },
  {
    "eventid": 197504300003,
    "nkill": 2,
    "iyear": 1975,
    "latitude": "13.69288",
    "longitude": "-89.199161",
    "gname": "People's Revolutionary Army (ERP) (El Salvador)"
  },
  {
    "eventid": 197505000001,
    "nkill": 0,
    "iyear": 1975,
    "latitude": "10.482834",
    "longitude": "-66.962128",
    "gname": "Red Flag (Venezuela)"
  },
  {
    "eventid": 197505000002,
    "iyear": 1975,
    "latitude": "40.465595",
    "longitude": "-3.696263",
    "gname": "Revolutionary Patriotic Anti-Fascist Front (FRAP)"
  },
  {
    "eventid": 197505000003,
    "iyear": 1975,
    "latitude": "39.470239",
    "longitude": "-0.376805",
    "gname": "Revolutionary Patriotic Anti-Fascist Front (FRAP)"
  },
  {
    "eventid": 197505000004,
    "nkill": 0,
    "iyear": 1975,
    "latitude": "10.482834",
    "longitude": "-66.962128",
    "gname": "Red Flag (Venezuela)"
  },
  {
    "eventid": 197505010001,
    "iyear": 1975,
    "latitude": "52.50153",
    "longitude": "13.401851",
    "gname": "Revolutionary Cells"
  },
  {
    "eventid": 197505010002,
    "iyear": 1975,
    "latitude": "49.477613",
    "longitude": "8.445092",
    "gname": "Revolutionary Cells"
  },
  {
    "eventid": 197505010003,
    "iyear": 1975,
    "latitude": "49.993038",
    "longitude": "8.247247",
    "gname": "Revolutionary Cells"
  },
  {
    "eventid": 197505010004,
    "iyear": 1975,
    "latitude": "40.465595",
    "longitude": "-3.696263",
    "gname": "Revolutionary Patriotic Anti-Fascist Front (FRAP)"
  },
  {
    "eventid": 197505010005,
    "iyear": 1975,
    "latitude": "40.465595",
    "longitude": "-3.696263",
    "gname": "Revolutionary Patriotic Anti-Fascist Front (FRAP)"
  },
  {
    "eventid": 197505010008,
    "iyear": 1975,
    "latitude": "40.465595",
    "longitude": "-3.696263",
    "gname": "Revolutionary Patriotic Anti-Fascist Front (FRAP)"
  },
  {
    "eventid": 197505010009,
    "iyear": 1975,
    "latitude": "41.400635",
    "longitude": "2.150913",
    "gname": "Revolutionary Patriotic Anti-Fascist Front (FRAP)"
  },
  {
    "eventid": 197505010010,
    "iyear": 1975,
    "latitude": "41.400635",
    "longitude": "2.150913",
    "gname": "Unknown"
  },
  {
    "eventid": 197505010011,
    "iyear": 1975,
    "latitude": "39.470239",
    "longitude": "-0.376805",
    "gname": "Unknown"
  },
  {
    "eventid": 197505010012,
    "iyear": 1975,
    "latitude": "42.815372",
    "longitude": "-1.653616",
    "gname": "Unknown"
  },
  {
    "eventid": 197505010013,
    "iyear": 1975,
    "latitude": "43.230556",
    "longitude": "-2.845833",
    "gname": "Basque Fatherland and Freedom (ETA)"
  },
  {
    "eventid": 197505010014,
    "iyear": 1975,
    "latitude": "40.465595",
    "longitude": "-3.696263",
    "gname": "Revolutionary Patriotic Anti-Fascist Front (FRAP)"
  },
  {
    "eventid": 197505010015,
    "iyear": 1975,
    "latitude": "41.400635",
    "longitude": "2.150913",
    "gname": "Unknown"
  },
  {
    "eventid": 197505010016,
    "nkill": 0,
    "iyear": 1975,
    "latitude": "38.579065",
    "longitude": "-121.491014",
    "gname": "New World Liberation Front (NWLF)"
  },
  {
    "eventid": 197505020001,
    "iyear": 1975,
    "latitude": "40.465595",
    "longitude": "-3.696263",
    "gname": "Revolutionary Patriotic Anti-Fascist Front (FRAP)"
  },
  {
    "eventid": 197505020003,
    "nkill": 0,
    "iyear": 1975,
    "latitude": "34.011565",
    "longitude": "-118.492289",
    "gname": "Cuban Action"
  },
  {
    "eventid": 197505020004,
    "nkill": 1,
    "iyear": 1975,
    "latitude": "54.607712",
    "longitude": "-5.95621",
    "gname": "Irish Republican Army (IRA)"
  },
  {
    "eventid": 197505030001,
    "nkill": 0,
    "iyear": 1975,
    "latitude": "47.914709",
    "longitude": "7.537626",
    "gname": "Meinhof-Puig-Antich Group"
  },
  {
    "eventid": 197505030002,
    "iyear": 1975,
    "latitude": "41.652943",
    "longitude": "-4.728381",
    "gname": "Revolutionary Patriotic Anti-Fascist Front (FRAP)"
  },
  {
    "eventid": 197505030003,
    "iyear": 1975,
    "latitude": "41.652943",
    "longitude": "-4.728381",
    "gname": "Revolutionary Patriotic Anti-Fascist Front (FRAP)"
  },
  {
    "eventid": 197505030004,
    "iyear": 1975,
    "latitude": "41.652943",
    "longitude": "-4.728381",
    "gname": "Revolutionary Patriotic Anti-Fascist Front (FRAP)"
  },
  {
    "eventid": 197505030005,
    "nkill": 1,
    "iyear": 1975,
    "latitude": "19.371887",
    "longitude": "-99.086624",
    "gname": "23rd of September Communist League"
  },
  {
    "eventid": 197505060001,
    "nkill": 1,
    "iyear": 1975,
    "latitude": "43.317073",
    "longitude": "-2.678975",
    "gname": "Basque Fatherland and Freedom (ETA)"
  },
  {
    "eventid": 197505060002,
    "nkill": 0,
    "iyear": 1975,
    "latitude": "41.890961",
    "longitude": "12.490069",
    "gname": "Armed Proletarian Nuclei (NAP)"
  },
  {
    "eventid": 197505070001,
    "nkill": 1,
    "iyear": 1975,
    "latitude": "43.258434",
    "longitude": "-2.921819",
    "gname": "Basque Fatherland and Freedom (ETA)"
  },
  {
    "eventid": 197505070002,
    "nkill": 0,
    "iyear": 1975,
    "latitude": "48.856644",
    "longitude": "2.34233",
    "gname": "International Revolutionary Action Group (GARI)"
  },
  {
    "eventid": 197505070004,
    "nkill": 0,
    "iyear": 1975,
    "latitude": "34.097866",
    "longitude": "-118.407379",
    "gname": "Cuban Action"
  },
  {
    "eventid": 197505080001,
    "nkill": 1,
    "iyear": 1975,
    "latitude": "4.667128",
    "longitude": "-74.106056",
    "gname": "Popular Liberation Army (EPL)"
  },
  {
    "eventid": 197505090001,
    "nkill": 0,
    "iyear": 1975,
    "latitude": "37.874043",
    "longitude": "-122.280022",
    "gname": "New World Liberation Front (NWLF)"
  },
  {
    "eventid": 197505100001,
    "nkill": 0,
    "iyear": 1975,
    "latitude": "38.908642",
    "longitude": "-77.015381",
    "gname": "The Scorpion"
  },
  {
    "eventid": 197505100002,
    "nkill": 0,
    "iyear": 1975,
    "latitude": "38.908642",
    "longitude": "-77.015381",
    "gname": "The Scorpion"
  },
  {
    "eventid": 197505100003,
    "nkill": 0,
    "iyear": 1975,
    "latitude": "43.258434",
    "longitude": "-2.921819",
    "gname": "Basque Fatherland and Freedom (ETA)"
  },
  {
    "eventid": 197505100004,
    "iyear": 1975,
    "latitude": "43.258434",
    "longitude": "-2.921819",
    "gname": "Unknown"
  },
  {
    "eventid": 197505100005,
    "iyear": 1975,
    "latitude": "43.258434",
    "longitude": "-2.921819",
    "gname": "Unknown"
  },
  {
    "eventid": 197505100006,
    "iyear": 1975,
    "latitude": "43.258434",
    "longitude": "-2.921819",
    "gname": "Argentine Anticommunist Alliance (AAA)"
  },
  {
    "eventid": 197505100007,
    "nkill": 1,
    "iyear": 1975,
    "latitude": "55.011562",
    "longitude": "-7.312045",
    "gname": "Irish Republican Army (IRA)"
  },
  {
    "eventid": 197505110001,
    "iyear": 1975,
    "latitude": "25.774591",
    "longitude": "-80.214195",
    "gname": "Unknown"
  },
  {
    "eventid": 197505120001,
    "iyear": 1975,
    "latitude": "-34.61768",
    "longitude": "-58.444435",
    "gname": "Unknown"
  },
  {
    "eventid": 197505130001,
    "nkill": 0,
    "iyear": 1975,
    "latitude": "40.465595",
    "longitude": "-3.696263",
    "gname": "Catalan Liberation Front (FAC)"
  },
  {
    "eventid": 197505130002,
    "nkill": 0,
    "iyear": 1975,
    "latitude": "40.465595",
    "longitude": "-3.696263",
    "gname": "Catalan Liberation Front (FAC)"
  },
  {
    "eventid": 197505140001,
    "nkill": 0,
    "iyear": 1975,
    "latitude": "43.291618",
    "longitude": "-1.977903",
    "gname": "Basque Fatherland and Freedom (ETA)"
  },
  {
    "eventid": 197505140002,
    "iyear": 1975,
    "latitude": "25.774591",
    "longitude": "-80.214195",
    "gname": "Unknown"
  },
  {
    "eventid": 197505150001,
    "nkill": 1,
    "iyear": 1975,
    "latitude": "43.317073",
    "longitude": "-2.678975",
    "gname": "Basque Fatherland and Freedom (ETA)"
  },
  {
    "eventid": 197505160001,
    "nkill": 0,
    "iyear": 1975,
    "latitude": "41.400635",
    "longitude": "2.150913",
    "gname": "Catalan Liberation Front (FAC)"
  },
  {
    "eventid": 197505180001,
    "nkill": 1,
    "iyear": 1975,
    "latitude": "54.255696",
    "longitude": "-5.948804",
    "gname": "Ulster Volunteer Force (UVF)"
  },
  {
    "eventid": 197505190001,
    "nkill": 0,
    "iyear": 1975,
    "latitude": "",
    "longitude": "",
    "gname": "People's Revolutionary Party (Tanzania)"
  },
  {
    "eventid": 197505190002,
    "nkill": 0,
    "iyear": 1975,
    "latitude": "43.359399",
    "longitude": "-1.766148",
    "gname": "Nationalist Intervention Group"
  },
  {
    "eventid": 197505190003,
    "nkill": 0,
    "iyear": 1975,
    "latitude": "37.941799",
    "longitude": "-122.48835",
    "gname": "New World Liberation Front (NWLF)"
  },
  {
    "eventid": 197505210001,
    "nkill": 1,
    "iyear": 1975,
    "latitude": "35.724533",
    "longitude": "51.40519",
    "gname": "Mujahedin-e Khalq (MEK)"
  },
  {
    "eventid": 197505210002,
    "nkill": 2,
    "iyear": 1975,
    "latitude": "35.724533",
    "longitude": "51.40519",
    "gname": "Mujahedin-e Khalq (MEK)"
  },
  {
    "eventid": 197505210003,
    "iyear": 1975,
    "latitude": "48.856644",
    "longitude": "2.34233",
    "gname": "Meinhof-Puig-Antich Group"
  },
  {
    "eventid": 197505210004,
    "iyear": 1975,
    "latitude": "48.856644",
    "longitude": "2.34233",
    "gname": "Meinhof-Puig-Antich Group"
  },
  {
    "eventid": 197505210005,
    "nkill": 0,
    "iyear": 1975,
    "latitude": "43.696036",
    "longitude": "7.265592",
    "gname": "Meinhof-Puig-Antich Group"
  },
  {
    "eventid": 197505210006,
    "nkill": 0,
    "iyear": 1975,
    "latitude": "35.724533",
    "longitude": "51.40519",
    "gname": "Unknown"
  },
  {
    "eventid": 197505220001,
    "nkill": 0,
    "iyear": 1975,
    "latitude": "48.856644",
    "longitude": "2.34233",
    "gname": "Meinhof-Puig-Antich Group"
  },
  {
    "eventid": 197505220002,
    "nkill": 0,
    "iyear": 1975,
    "latitude": "41.106178",
    "longitude": "28.689863",
    "gname": "Turkish People's Liberation Army"
  },
  {
    "eventid": 197505220003,
    "nkill": 1,
    "iyear": 1975,
    "latitude": "54.671804",
    "longitude": "-5.957181",
    "gname": "Ulster Volunteer Force (UVF)"
  },
  {
    "eventid": 197505230001,
    "nkill": 0,
    "iyear": 1975,
    "latitude": "41.106178",
    "longitude": "28.689863",
    "gname": "Turkish People's Liberation Army"
  },
  {
    "eventid": 197505230002,
    "nkill": 2,
    "iyear": 1975,
    "latitude": "54.607712",
    "longitude": "-5.95621",
    "gname": "Protestant extremists"
  },
  {
    "eventid": 197505230003,
    "nkill": 0,
    "iyear": 1975,
    "latitude": "18.386932",
    "longitude": "-66.061127",
    "gname": "Fuerzas Armadas de Liberacion Nacional (FALN)"
  },
  {
    "eventid": 197505230004,
    "nkill": 0,
    "iyear": 1975,
    "latitude": "18.386932",
    "longitude": "-66.061127",
    "gname": "Fuerzas Armadas de Liberacion Nacional (FALN)"
  },
  {
    "eventid": 197505230005,
    "nkill": 0,
    "iyear": 1975,
    "latitude": "18.386932",
    "longitude": "-66.061127",
    "gname": "Fuerzas Armadas de Liberacion Nacional (FALN)"
  },
  {
    "eventid": 197505240001,
    "nkill": 1,
    "iyear": 1975,
    "latitude": "54.818983",
    "longitude": "-6.663403",
    "gname": "Irish National Liberation Army (INLA)"
  },
  {
    "eventid": 197505250001,
    "iyear": 1975,
    "latitude": "35.181446",
    "longitude": "136.906398",
    "gname": "East Asia Anti Japanese Armed Front"
  },
  {
    "eventid": 197505250002,
    "iyear": 1975,
    "latitude": "35.714008",
    "longitude": "139.407855",
    "gname": "East Asia Anti Japanese Armed Front"
  },
  {
    "eventid": 197505250003,
    "iyear": 1975,
    "latitude": "40.465595",
    "longitude": "-3.696263",
    "gname": "Revolutionary Patriotic Anti-Fascist Front (FRAP)"
  },
  {
    "eventid": 197505250004,
    "nkill": 1,
    "iyear": 1975,
    "latitude": "54.717441",
    "longitude": "-7.232568",
    "gname": "Ulster Volunteer Force (UVF)"
  },
  {
    "eventid": 197505260001,
    "nkill": 0,
    "iyear": 1975,
    "latitude": "40.697132",
    "longitude": "-73.931351",
    "gname": "Unknown"
  },
  {
    "eventid": 197505270001,
    "iyear": 1975,
    "latitude": "40.465595",
    "longitude": "-3.696263",
    "gname": "Revolutionary Patriotic Anti-Fascist Front (FRAP)"
  },
  {
    "eventid": 197505270002,
    "iyear": 1975,
    "latitude": "40.465595",
    "longitude": "-3.696263",
    "gname": "Revolutionary Patriotic Anti-Fascist Front (FRAP)"
  },
  {
    "eventid": 197505270003,
    "nkill": 1,
    "iyear": 1975,
    "latitude": "54.471741",
    "longitude": "-7.635635",
    "gname": "Ulster Volunteer Force (UVF)"
  },
  {
    "eventid": 197505290001,
    "iyear": 1975,
    "latitude": "40.465595",
    "longitude": "-3.696263",
    "gname": "Revolutionary Patriotic Anti-Fascist Front (FRAP)"
  },
  {
    "eventid": 197505300001,
    "nkill": 0,
    "iyear": 1975,
    "latitude": "49.49437",
    "longitude": "0.107929",
    "gname": "Baader-Meinhof Group"
  },
  {
    "eventid": 197505310001,
    "nkill": 0,
    "iyear": 1975,
    "latitude": "33.888523",
    "longitude": "35.503513",
    "gname": "Arab Communist Organization"
  },
  {
    "eventid": 197505310002,
    "iyear": 1975,
    "latitude": "37.38264",
    "longitude": "-5.996295",
    "gname": "Unknown"
  },
  {
    "eventid": 197505310003,
    "iyear": 1975,
    "latitude": "40.465595",
    "longitude": "-3.696263",
    "gname": "Revolutionary Patriotic Anti-Fascist Front (FRAP)"
  },
  {
    "eventid": 197505310004,
    "nkill": 0,
    "iyear": 1975,
    "latitude": "47.039225",
    "longitude": "-122.891429",
    "gname": "George Jackson Brigade"
  },
  {
    "eventid": 197505310005,
    "nkill": 1,
    "iyear": 1975,
    "latitude": "53.993847",
    "longitude": "-6.396594",
    "gname": "Irish Republican Army (IRA)"
  },
  {
    "eventid": 197506000001,
    "nkill": 0,
    "iyear": 1975,
    "latitude": "41.400635",
    "longitude": "2.150913",
    "gname": "Unknown"
  },
  {
    "eventid": 197506000002,
    "nkill": 0,
    "iyear": 1975,
    "latitude": "39.470239",
    "longitude": "-0.376805",
    "gname": "Unknown"
  },
  {
    "eventid": 197506000003,
    "nkill": 0,
    "iyear": 1975,
    "latitude": "43.483152",
    "longitude": "-1.558626",
    "gname": "Anti-Terrorism ETA (ATE)"
  },
  {
    "eventid": 197506010001,
    "nkill": 1,
    "iyear": 1975,
    "latitude": "54.418875",
    "longitude": "-8.088046",
    "gname": "Irish Republican Army (IRA)"
  },
  {
    "eventid": 197506030001,
    "nkill": 0,
    "iyear": 1975,
    "latitude": "41.890961",
    "longitude": "12.490069",
    "gname": "Unknown"
  },
  {
    "eventid": 197506030002,
    "nkill": 0,
    "iyear": 1975,
    "latitude": "41.890961",
    "longitude": "12.490069",
    "gname": "Unknown"
  },
  {
    "eventid": 197506030003,
    "nkill": 0,
    "iyear": 1975,
    "latitude": "41.890961",
    "longitude": "12.490069",
    "gname": "Unknown"
  },
  {
    "eventid": 197506030004,
    "nkill": 3,
    "iyear": 1975,
    "latitude": "54.673252",
    "longitude": "-7.627484",
    "gname": "Irish Republican Army (IRA)"
  },
  {
    "eventid": 197506040001,
    "nkill": 0,
    "iyear": 1975,
    "latitude": "40.465595",
    "longitude": "-3.696263",
    "gname": "Revolutionary Patriotic Anti-Fascist Front (FRAP)"
  },
  {
    "eventid": 197506050001,
    "nkill": 0,
    "iyear": 1975,
    "latitude": "40.465595",
    "longitude": "-3.696263",
    "gname": "Revolutionary Patriotic Anti-Fascist Front (FRAP)"
  },
  {
    "eventid": 197506050002,
    "nkill": 0,
    "iyear": 1975,
    "latitude": "48.856644",
    "longitude": "2.34233",
    "gname": "Nationalist Intervention Group"
  },
  {
    "eventid": 197506050003,
    "nkill": 1,
    "iyear": 1975,
    "latitude": "54.607712",
    "longitude": "-5.95621",
    "gname": "Official Irish Republican Army (OIRA)"
  },
  {
    "eventid": 197506060001,
    "nkill": 1,
    "iyear": 1975,
    "latitude": "",
    "longitude": "",
    "gname": "Basque Fatherland and Freedom (ETA)"
  },
  {
    "eventid": 197506060002,
    "nkill": 0,
    "iyear": 1975,
    "latitude": "41.400635",
    "longitude": "2.150913",
    "gname": "Basque Fatherland and Freedom (ETA)"
  },
  {
    "eventid": 197506080001,
    "nkill": 0,
    "iyear": 1975,
    "latitude": "-11.967368",
    "longitude": "-76.978462",
    "gname": "Movement of the Revolutionary Left (MIR) (Peru)"
  },
  {
    "eventid": 197506080002,
    "nkill": 2,
    "iyear": 1975,
    "latitude": "37.755363",
    "longitude": "-122.443352",
    "gname": "Tribal Thumb"
  },
  {
    "eventid": 197506100001,
    "nkill": 1,
    "iyear": 1975,
    "latitude": "54.607712",
    "longitude": "-5.95621",
    "gname": "Irish Republican Army (IRA)"
  },
  {
    "eventid": 197506100002,
    "nkill": 1,
    "iyear": 1975,
    "latitude": "51.903347",
    "longitude": "-8.48825",
    "gname": "Official Irish Republican Army (OIRA)"
  },
  {
    "eventid": 197506100003,
    "nkill": 1,
    "iyear": 1975,
    "latitude": "54.607712",
    "longitude": "-5.95621",
    "gname": "Irish Republican Army (IRA)"
  },
  {
    "eventid": 197506120001,
    "nkill": 2,
    "iyear": 1975,
    "latitude": "54.607712",
    "longitude": "-5.95621",
    "gname": "Ulster Volunteer Force (UVF)"
  },
  {
    "eventid": 197506130001,
    "nkill": 0,
    "iyear": 1975,
    "latitude": "-1.28518",
    "longitude": "36.821107",
    "gname": "Unknown"
  },
  {
    "eventid": 197506130002,
    "nkill": 1,
    "iyear": 1975,
    "latitude": "54.607712",
    "longitude": "-5.95621",
    "gname": "Protestant extremists"
  },
  {
    "eventid": 197506140001,
    "nkill": 0,
    "iyear": 1975,
    "latitude": "36.32396",
    "longitude": "59.556959",
    "gname": "Mujahedin-e Khalq (MEK)"
  },
  {
    "eventid": 197506140002,
    "nkill": 0,
    "iyear": 1975,
    "latitude": "41.842602",
    "longitude": "-87.681229",
    "gname": "Fuerzas Armadas de Liberacion Nacional (FALN)"
  },
  {
    "eventid": 197506140003,
    "nkill": 1,
    "iyear": 1975,
    "latitude": "54.607712",
    "longitude": "-5.95621",
    "gname": "Ulster Freedom Fighters (UFF)"
  },
  {
    "eventid": 197506140004,
    "nkill": 1,
    "iyear": 1975,
    "latitude": "54.607712",
    "longitude": "-5.95621",
    "gname": "Irish Republican Extremists"
  },
  {
    "eventid": 197506140005,
    "nkill": 0,
    "iyear": 1975,
    "latitude": "41.842602",
    "longitude": "-87.681229",
    "gname": "Fuerzas Armadas de Liberacion Nacional (FALN)"
  },
  {
    "eventid": 197506140006,
    "nkill": 0,
    "iyear": 1975,
    "latitude": "41.842602",
    "longitude": "-87.681229",
    "gname": "Fuerzas Armadas de Liberacion Nacional (FALN)"
  },
  {
    "eventid": 197506150001,
    "nkill": 0,
    "iyear": 1975,
    "latitude": "48.856644",
    "longitude": "2.34233",
    "gname": "Nationalist Intervention Group"
  },
  {
    "eventid": 197506150002,
    "iyear": 1975,
    "latitude": "36.32396",
    "longitude": "59.556959",
    "gname": "Mujahedin-e Khalq (MEK)"
  },
  {
    "eventid": 197506150003,
    "nkill": 0,
    "iyear": 1975,
    "latitude": "42.231356",
    "longitude": "-8.712447",
    "gname": "Basque Fatherland and Freedom (ETA)"
  },
  {
    "eventid": 197506150004,
    "nkill": 1,
    "iyear": 1975,
    "latitude": "14.596051",
    "longitude": "120.978666",
    "gname": "Unknown"
  },
  {
    "eventid": 197506160001,
    "nkill": 0,
    "iyear": 1975,
    "latitude": "40.697132",
    "longitude": "-73.931351",
    "gname": "Weather Underground, Weathermen"
  },
  {
    "eventid": 197506160002,
    "nkill": 0,
    "iyear": 1975,
    "latitude": "14.622869",
    "longitude": "-90.529068",
    "gname": "Unknown"
  },
  {
    "eventid": 197506160003,
    "nkill": 0,
    "iyear": 1975,
    "latitude": "18.386932",
    "longitude": "-66.061127",
    "gname": "Fuerzas Armadas de Liberacion Nacional (FALN)"
  },
  {
    "eventid": 197506190001,
    "nkill": 1,
    "iyear": 1975,
    "latitude": "54.607712",
    "longitude": "-5.95621",
    "gname": "Protestant Action Group"
  },
  {
    "eventid": 197506200001,
    "nkill": 1,
    "iyear": 1975,
    "latitude": "54.607712",
    "longitude": "-5.95621",
    "gname": "Protestant extremists"
  },
  {
    "eventid": 197506200002,
    "nkill": 1,
    "iyear": 1975,
    "latitude": "54.607712",
    "longitude": "-5.95621",
    "gname": "Ulster Freedom Fighters (UFF)"
  },
  {
    "eventid": 197506220001,
    "iyear": 1975,
    "latitude": "-34.61768",
    "longitude": "-58.444435",
    "gname": "Montoneros (Argentina)"
  },
  {
    "eventid": 197506220002,
    "nkill": 1,
    "iyear": 1975,
    "latitude": "54.713382",
    "longitude": "-6.216761",
    "gname": "Protestant extremists"
  },
  {
    "eventid": 197506220003,
    "nkill": 2,
    "iyear": 1975,
    "latitude": "54.607712",
    "longitude": "-5.95621",
    "gname": "Irish Republican Army (IRA)"
  },
  {
    "eventid": 197506220004,
    "nkill": 1,
    "iyear": 1975,
    "latitude": "53.252173",
    "longitude": "-6.665464",
    "gname": "Ulster Volunteer Force (UVF)"
  },
  {
    "eventid": 197506230001,
    "nkill": 0,
    "iyear": 1975,
    "latitude": "40.697132",
    "longitude": "-73.931351",
    "gname": "Croatian Nationalists"
  },
  {
    "eventid": 197506240001,
    "nkill": 1,
    "iyear": 1975,
    "latitude": "54.607712",
    "longitude": "-5.95621",
    "gname": "Irish Republican Extremists"
  },
  {
    "eventid": 197506270001,
    "nkill": 0,
    "iyear": 1975,
    "latitude": "37.774422",
    "longitude": "-122.275475",
    "gname": "New World Liberation Front (NWLF)"
  },
  {
    "eventid": 197506270002,
    "nkill": 0,
    "iyear": 1975,
    "latitude": "43.878581",
    "longitude": "-103.45906",
    "gname": "American Indian Movement"
  },
  {
    "eventid": 197506280001,
    "iyear": 1975,
    "latitude": "",
    "longitude": "",
    "gname": "Revolutionary Patriotic Anti-Fascist Front (FRAP)"
  },
  {
    "eventid": 197506280002,
    "nkill": 1,
    "iyear": 1975,
    "latitude": "54.607712",
    "longitude": "-5.95621",
    "gname": "Ulster Volunteer Force (UVF)"
  },
  {
    "eventid": 197506290001,
    "nkill": 0,
    "iyear": 1975,
    "latitude": "33.888523",
    "longitude": "35.503513",
    "gname": "Popular Front for the Liberation of Palestine (PFLP)"
  },
  {
    "eventid": 197507000001,
    "nkill": 0,
    "iyear": 1975,
    "latitude": "-26.808285",
    "longitude": "-65.21759",
    "gname": "Ejercito Revolucionaria del Pueblo (ERP) (Argentina)"
  },
  {
    "eventid": 197507000002,
    "nkill": 0,
    "iyear": 1975,
    "latitude": "10.482834",
    "longitude": "-66.962128",
    "gname": "Red Flag (Venezuela)"
  },
  {
    "eventid": 197507000003,
    "nkill": 0,
    "iyear": 1975,
    "latitude": "10.482834",
    "longitude": "-66.962128",
    "gname": "Red Flag (Venezuela)"
  },
  {
    "eventid": 197507020001,
    "nkill": 0,
    "iyear": 1975,
    "latitude": "35.04644",
    "longitude": "-85.309464",
    "gname": "Unknown"
  },
  {
    "eventid": 197507030001,
    "nkill": 1,
    "iyear": 1975,
    "latitude": "35.724533",
    "longitude": "51.40519",
    "gname": "Mujahedin-e Khalq (MEK)"
  },
  {
    "eventid": 197507050001,
    "nkill": 1,
    "iyear": 1975,
    "latitude": "43.295562",
    "longitude": "-2.353894",
    "gname": "Basque Fatherland and Freedom (ETA)"
  },
  {
    "eventid": 197507050002,
    "nkill": 0,
    "iyear": 1975,
    "latitude": "49.008085",
    "longitude": "8.403756",
    "gname": "Unknown"
  },
  {
    "eventid": 197507070001,
    "nkill": 1,
    "iyear": 1975,
    "latitude": "54.463367",
    "longitude": "-6.328597",
    "gname": "Irish Republican Army (IRA)"
  },
  {
    "eventid": 197507100001,
    "nkill": 1,
    "iyear": 1975,
    "latitude": "40.465595",
    "longitude": "-3.696263",
    "gname": "First of October Antifascist Resistance Group (GRAPO)"
  },
  {
    "eventid": 197507100002,
    "iyear": 1975,
    "latitude": "41.400635",
    "longitude": "2.150913",
    "gname": "Revolutionary Patriotic Anti-Fascist Front (FRAP)"
  },
  {
    "eventid": 197507120001,
    "nkill": 1,
    "iyear": 1975,
    "latitude": "54.607712",
    "longitude": "-5.95621",
    "gname": "Irish Republican Army (IRA)"
  },
  {
    "eventid": 197507130001,
    "nkill": 1,
    "iyear": 1975,
    "latitude": "54.607712",
    "longitude": "-5.95621",
    "gname": "Ulster Volunteer Force (UVF)"
  },
  {
    "eventid": 197507140001,
    "nkill": 1,
    "iyear": 1975,
    "latitude": "40.465595",
    "longitude": "-3.696263",
    "gname": "Revolutionary Patriotic Anti-Fascist Front (FRAP)"
  },
  {
    "eventid": 197507140002,
    "nkill": 0,
    "iyear": 1975,
    "latitude": "15.333513",
    "longitude": "38.933652",
    "gname": "Eritrean Liberation Front"
  },
  {
    "eventid": 197507140003,
    "nkill": 0,
    "iyear": 1975,
    "latitude": "41.479561",
    "longitude": "-81.675461",
    "gname": "Unknown"
  },
  {
    "eventid": 197507150001,
    "nkill": 0,
    "iyear": 1975,
    "latitude": "34.097866",
    "longitude": "-118.407379",
    "gname": "Cuban Action"
  },
  {
    "eventid": 197507160001,
    "nkill": 0,
    "iyear": 1975,
    "latitude": "-34.61768",
    "longitude": "-58.444435",
    "gname": "Montoneros (Argentina)"
  },
  {
    "eventid": 197507170001,
    "nkill": 4,
    "iyear": 1975,
    "latitude": "54.081638",
    "longitude": "-6.448779",
    "gname": "Irish Republican Army (IRA)"
  },
  {
    "eventid": 197507180001,
    "iyear": 1975,
    "latitude": "41.400635",
    "longitude": "2.150913",
    "gname": "Revolutionary Patriotic Anti-Fascist Front (FRAP)"
  },
  {
    "eventid": 197507180003,
    "nkill": 0,
    "iyear": 1975,
    "latitude": "38.908642",
    "longitude": "-77.015381",
    "gname": "Cuban Action"
  },
  {
    "eventid": 197507190001,
    "nkill": 1,
    "iyear": 1975,
    "latitude": "40.465595",
    "longitude": "-3.696263",
    "gname": "Revolutionary Patriotic Anti-Fascist Front (FRAP)"
  },
  {
    "eventid": 197507190002,
    "nkill": 0,
    "iyear": 1975,
    "latitude": "19.371887",
    "longitude": "-99.086624",
    "gname": "23rd of September Communist League"
  },
  {
    "eventid": 197507190003,
    "iyear": 1975,
    "latitude": "35.689125",
    "longitude": "139.747742",
    "gname": "East Asia Anti Japanese Armed Front"
  },
  {
    "eventid": 197507190004,
    "iyear": 1975,
    "latitude": "41.400635",
    "longitude": "2.150913",
    "gname": "Revolutionary Patriotic Anti-Fascist Front (FRAP)"
  },
  {
    "eventid": 197507210002,
    "nkill": 0,
    "iyear": 1975,
    "latitude": "37.755363",
    "longitude": "-122.443352",
    "gname": "Red Guerilla Family"
  },
  {
    "eventid": 197507220001,
    "iyear": 1975,
    "latitude": "36.32396",
    "longitude": "59.556959",
    "gname": "Unknown"
  },
  {
    "eventid": 197507230001,
    "nkill": 0,
    "iyear": 1975,
    "latitude": "26.334427",
    "longitude": "127.805583",
    "gname": "Okinawa Liberation League"
  },
  {
    "eventid": 197507250001,
    "iyear": 1975,
    "latitude": "7.629752",
    "longitude": "123.031662",
    "gname": "Moro National Liberation Front (MNLF)"
  },
  {
    "eventid": 197507260001,
    "nkill": 0,
    "iyear": 1975,
    "latitude": "48.856644",
    "longitude": "2.34233",
    "gname": "Unknown"
  },
  {
    "eventid": 197507260002,
    "nkill": 0,
    "iyear": 1975,
    "latitude": "50.692705",
    "longitude": "3.177847",
    "gname": "Unknown"
  },
  {
    "eventid": 197507260003,
    "nkill": 0,
    "iyear": 1975,
    "latitude": "45.764043",
    "longitude": "4.835659",
    "gname": "Unknown"
  },
  {
    "eventid": 197507260004,
    "iyear": 1975,
    "latitude": "25.774591",
    "longitude": "-80.214195",
    "gname": "Unknown"
  },
  {
    "eventid": 197507260005,
    "nkill": 1,
    "iyear": 1975,
    "latitude": "54.927953",
    "longitude": "-6.925873",
    "gname": "Irish National Liberation Army (INLA)"
  },
  {
    "eventid": 197507270001,
    "nkill": 1,
    "iyear": 1975,
    "latitude": "54.463367",
    "longitude": "-6.328597",
    "gname": "Ulster Volunteer Force (UVF)"
  },
  {
    "eventid": 197507270002,
    "nkill": 1,
    "iyear": 1975,
    "latitude": "9.666399",
    "longitude": "80.020477",
    "gname": "Liberation Tigers of Tamil Eelam (LTTE)"
  },
  {
    "eventid": 197507300001,
    "nkill": 0,
    "iyear": 1975,
    "latitude": "41.930607",
    "longitude": "8.742907",
    "gname": "Fronte Paesanu Corsu di Liberazione (FPCL)"
  },
  {
    "eventid": 197507300003,
    "nkill": 3,
    "iyear": 1975,
    "latitude": "41.400635",
    "longitude": "2.150913",
    "gname": "First of October Antifascist Resistance Group (GRAPO)"
  },
  {
    "eventid": 197507300004,
    "nkill": 0,
    "iyear": 1975,
    "latitude": "40.465595",
    "longitude": "-3.696263",
    "gname": "First of October Antifascist Resistance Group (GRAPO)"
  },
  {
    "eventid": 197507310001,
    "nkill": 1,
    "iyear": 1975,
    "latitude": "43.271382",
    "longitude": "-2.049934",
    "gname": "Basque Fatherland and Freedom (ETA)"
  },
  {
    "eventid": 197507310002,
    "nkill": 0,
    "iyear": 1975,
    "latitude": "-34.61768",
    "longitude": "-58.444435",
    "gname": "Ejercito Revolucionaria del Pueblo (ERP) (Argentina)"
  },
  {
    "eventid": 197507310003,
    "nkill": 1,
    "iyear": 1975,
    "latitude": "51.504387",
    "longitude": "-0.140041",
    "gname": "Irish Republican Army (IRA)"
  },
  {
    "eventid": 197507310005,
    "iyear": 1975,
    "latitude": "39.470239",
    "longitude": "-0.376805",
    "gname": "Revolutionary Patriotic Anti-Fascist Front (FRAP)"
  },
  {
    "eventid": 197507310006,
    "nkill": 5,
    "iyear": 1975,
    "latitude": "54.183052",
    "longitude": "-6.341388",
    "gname": "Ulster Volunteer Force (UVF)"
  },
  {
    "eventid": 197508000001,
    "nkill": 0,
    "iyear": 1975,
    "latitude": "14.622869",
    "longitude": "-90.529068",
    "gname": "Unknown"
  },
  {
    "eventid": 197508000002,
    "nkill": 0,
    "iyear": 1975,
    "latitude": "51.28156",
    "longitude": "-0.071038",
    "gname": "Irish Republican Army (IRA)"
  },
  {
    "eventid": 197508000003,
    "nkill": 0,
    "iyear": 1975,
    "latitude": "51.504387",
    "longitude": "-0.140041",
    "gname": "Irish Republican Army (IRA)"
  },
  {
    "eventid": 197508010001,
    "nkill": 2,
    "iyear": 1975,
    "latitude": "54.373521",
    "longitude": "-6.359509",
    "gname": "Ulster Volunteer Force (UVF)"
  },
  {
    "eventid": 197508020001,
    "nkill": 1,
    "iyear": 1975,
    "latitude": "40.465595",
    "longitude": "-3.696263",
    "gname": "Revolutionary Patriotic Anti-Fascist Front (FRAP)"
  },
  {
    "eventid": 197508020002,
    "nkill": 1,
    "iyear": 1975,
    "latitude": "54.446614",
    "longitude": "-6.690752",
    "gname": "Irish Republican Army (IRA)"
  },
  {
    "eventid": 197508040001,
    "nkill": 0,
    "iyear": 1975,
    "latitude": "40.697132",
    "longitude": "-73.931351",
    "gname": "Unknown"
  },
  {
    "eventid": 197508040002,
    "nkill": 0,
    "iyear": 1975,
    "latitude": "3.138943",
    "longitude": "101.691315",
    "gname": "Japanese Red Army (JRA)"
  },
  {
    "eventid": 197508050001,
    "nkill": 0,
    "iyear": 1975,
    "latitude": "4.667128",
    "longitude": "-74.106056",
    "gname": "Unknown"
  },
  {
    "eventid": 197508050002,
    "nkill": 0,
    "iyear": 1975,
    "latitude": "-34.61768",
    "longitude": "-58.444435",
    "gname": "Unknown"
  },
  {
    "eventid": 197508050003,
    "nkill": 0,
    "iyear": 1975,
    "latitude": "47.255135",
    "longitude": "-122.441654",
    "gname": "George Jackson Brigade"
  },
  {
    "eventid": 197508060001,
    "nkill": 0,
    "iyear": 1975,
    "latitude": "13.69288",
    "longitude": "-89.199161",
    "gname": "People's Revolutionary Army (ERP) (El Salvador)"
  },
  {
    "eventid": 197508060002,
    "nkill": 0,
    "iyear": 1975,
    "latitude": "47.976575",
    "longitude": "-122.206419",
    "gname": "George Jackson Brigade"
  },
  {
    "eventid": 197508080001,
    "nkill": 1,
    "iyear": 1975,
    "latitude": "43.267549",
    "longitude": "-1.975814",
    "gname": "Basque Fatherland and Freedom (ETA)"
  },
  {
    "eventid": 197508080002,
    "nkill": 0,
    "iyear": 1975,
    "latitude": "43.258434",
    "longitude": "-2.921819",
    "gname": "Basque Fatherland and Freedom (ETA)"
  },
  {
    "eventid": 197508080003,
    "nkill": 0,
    "iyear": 1975,
    "latitude": "37.429939",
    "longitude": "-122.253856",
    "gname": "New World Liberation Front (NWLF)"
  },
  {
    "eventid": 197508080004,
    "nkill": 11,
    "iyear": 1975,
    "latitude": "12.103822",
    "longitude": "-86.267014",
    "gname": "Sandinista National Liberation Front (FSLN)"
  },
  {
    "eventid": 197508080005,
    "nkill": 0,
    "iyear": 1975,
    "latitude": "39.758968",
    "longitude": "-104.876305",
    "gname": "Unknown"
  },
  {
    "eventid": 197508090001,
    "nkill": 1,
    "iyear": 1975,
    "latitude": "40.465595",
    "longitude": "-3.696263",
    "gname": "First of October Antifascist Resistance Group (GRAPO)"
  },
  {
    "eventid": 197508100001,
    "nkill": 0,
    "iyear": 1975,
    "latitude": "",
    "longitude": "",
    "gname": "Revolutionary Patriotic Anti-Fascist Front (FRAP)"
  },
  {
    "eventid": 197508100002,
    "nkill": 0,
    "iyear": 1975,
    "latitude": "40.465595",
    "longitude": "-3.696263",
    "gname": "Revolutionary Patriotic Anti-Fascist Front (FRAP)"
  },
  {
    "eventid": 197508100003,
    "nkill": 2,
    "iyear": 1975,
    "latitude": "54.607712",
    "longitude": "-5.95621",
    "gname": "Irish Republican Army (IRA)"
  },
  {
    "eventid": 197508110001,
    "nkill": 1,
    "iyear": 1975,
    "latitude": "54.607712",
    "longitude": "-5.95621",
    "gname": "Irish Republican Army (IRA)"
  },
  {
    "eventid": 197508120001,
    "nkill": 6,
    "iyear": 1975,
    "latitude": "19.371887",
    "longitude": "-99.086624",
    "gname": "23rd of September Communist League"
  },
  {
    "eventid": 197508120002,
    "nkill": 1,
    "iyear": 1975,
    "latitude": "54.607712",
    "longitude": "-5.95621",
    "gname": "Ulster Freedom Fighters (UFF)"
  },
  {
    "eventid": 197508130001,
    "nkill": 0,
    "iyear": 1975,
    "latitude": "-34.61768",
    "longitude": "-58.444435",
    "gname": "Cuban Action"
  },
  {
    "eventid": 197508130002,
    "iyear": 1975,
    "latitude": "42.84964",
    "longitude": "-2.692359",
    "gname": "Basque Fatherland and Freedom (ETA)"
  },
  {
    "eventid": 197508130003,
    "nkill": 5,
    "iyear": 1975,
    "latitude": "54.607712",
    "longitude": "-5.95621",
    "gname": "Irish Republican Army (IRA)"
  },
  {
    "eventid": 197508130004,
    "nkill": 1,
    "iyear": 1975,
    "latitude": "54.192934",
    "longitude": "-6.576051",
    "gname": "Irish Republican Army (IRA)"
  },
  {
    "eventid": 197508140001,
    "iyear": 1975,
    "latitude": "35.689125",
    "longitude": "139.747742",
    "gname": "East Asia Anti Japanese Armed Front"
  },
  {
    "eventid": 197508140002,
    "iyear": 1975,
    "latitude": "35.689125",
    "longitude": "139.747742",
    "gname": "East Asia Anti Japanese Armed Front"
  },
  {
    "eventid": 197508140003,
    "iyear": 1975,
    "latitude": "35.689125",
    "longitude": "139.747742",
    "gname": "East Asia Anti Japanese Armed Front"
  },
  {
    "eventid": 197508150001,
    "iyear": 1975,
    "latitude": "48.3533",
    "longitude": "-3.872203",
    "gname": "Unknown"
  },
  {
    "eventid": 197508150002,
    "nkill": 1,
    "iyear": 1975,
    "latitude": "54.347539",
    "longitude": "-6.656108",
    "gname": "Irish Republican Army (IRA)"
  },
  {
    "eventid": 197508150003,
    "nkill": 1,
    "iyear": 1975,
    "latitude": "54.607712",
    "longitude": "-5.95621",
    "gname": "Irish Republican Army (IRA)"
  },
  {
    "eventid": 197508150004,
    "nkill": 1,
    "iyear": 1975,
    "latitude": "54.543446",
    "longitude": "-6.039963",
    "gname": "Irish Republican Extremists"
  },
  {
    "eventid": 197508160001,
    "nkill": 1,
    "iyear": 1975,
    "latitude": "-17.906983",
    "longitude": "15.97565",
    "gname": "South-West Africa People's Organization (SWAPO)"
  },
  {
    "eventid": 197508160002,
    "nkill": 1,
    "iyear": 1975,
    "latitude": "40.465595",
    "longitude": "-3.696263",
    "gname": "Revolutionary Patriotic Anti-Fascist Front (FRAP)"
  },
  {
    "eventid": 197508160003,
    "iyear": 1975,
    "latitude": "39.470239",
    "longitude": "-0.376805",
    "gname": "Unknown"
  },
  {
    "eventid": 197508160004,
    "iyear": 1975,
    "latitude": "42.815372",
    "longitude": "-1.653616",
    "gname": "Unknown"
  },
  {
    "eventid": 197508160005,
    "nkill": 1,
    "iyear": 1975,
    "latitude": "34.06857",
    "longitude": "-118.027606",
    "gname": "Neo-Nazi extremists"
  },
  {
    "eventid": 197508170001,
    "nkill": 1,
    "iyear": 1975,
    "latitude": "39.470239",
    "longitude": "-0.376805",
    "gname": "Revolutionary Patriotic Anti-Fascist Front (FRAP)"
  },
  {
    "eventid": 197508180001,
    "nkill": 0,
    "iyear": 1975,
    "latitude": "50.732674",
    "longitude": "7.096299",
    "gname": "Soldiers of the Algerian Opposition"
  },
  {
    "eventid": 197508180002,
    "nkill": 0,
    "iyear": 1975,
    "latitude": "41.890961",
    "longitude": "12.490069",
    "gname": "Soldiers of the Algerian Opposition"
  },
  {
    "eventid": 197508180003,
    "nkill": 0,
    "iyear": 1975,
    "latitude": "51.504387",
    "longitude": "-0.140041",
    "gname": "Soldiers of the Algerian Opposition"
  },
  {
    "eventid": 197508200001,
    "nkill": 0,
    "iyear": 1975,
    "latitude": "52.50153",
    "longitude": "13.401851",
    "gname": "Unknown"
  },
  {
    "eventid": 197508200002,
    "nkill": 0,
    "iyear": 1975,
    "latitude": "37.97457",
    "longitude": "-122.532474",
    "gname": "New World Liberation Front (NWLF)"
  },
  {
    "eventid": 197508200003,
    "nkill": 1,
    "iyear": 1975,
    "latitude": "4.87817",
    "longitude": "-72.89519",
    "gname": "National Liberation Army of Colombia (ELN)"
  },
  {
    "eventid": 197508210001,
    "nkill": 1,
    "iyear": 1975,
    "latitude": "54.607712",
    "longitude": "-5.95621",
    "gname": "Protestant extremists"
  },
  {
    "eventid": 197508210002,
    "nkill": 1,
    "iyear": 1975,
    "latitude": "54.671804",
    "longitude": "-5.957181",
    "gname": "Irish Republican Extremists"
  },
  {
    "eventid": 197508220001,
    "nkill": 0,
    "iyear": 1975,
    "latitude": "39.470239",
    "longitude": "-0.376805",
    "gname": "Revolutionary Patriotic Anti-Fascist Front (FRAP)"
  },
  {
    "eventid": 197508220002,
    "nkill": 0,
    "iyear": 1975,
    "latitude": "-34.850419",
    "longitude": "-57.902053",
    "gname": "Unknown"
  },
  {
    "eventid": 197508220003,
    "nkill": 3,
    "iyear": 1975,
    "latitude": "19.371887",
    "longitude": "-99.086624",
    "gname": "23rd of September Communist League"
  },
  {
    "eventid": 197508220004,
    "nkill": 1,
    "iyear": 1975,
    "latitude": "54.607712",
    "longitude": "-5.95621",
    "gname": "Ulster Volunteer Force (UVF)"
  },
  {
    "eventid": 197508220005,
    "nkill": 3,
    "iyear": 1975,
    "latitude": "54.347539",
    "longitude": "-6.656108",
    "gname": "Protestant extremists"
  },
  {
    "eventid": 197508240001,
    "nkill": 2,
    "iyear": 1975,
    "latitude": "54.192934",
    "longitude": "-6.576051",
    "gname": "Protestant extremists"
  },
  {
    "eventid": 197508250001,
    "nkill": 0,
    "iyear": 1975,
    "latitude": "3.138943",
    "longitude": "101.691315",
    "gname": "Communist Party of Malaysia- Marxist-Leninist"
  },
  {
    "eventid": 197508260001,
    "nkill": 0,
    "iyear": 1975,
    "latitude": "",
    "longitude": "",
    "gname": "Moro National Liberation Front (MNLF)"
  },
  {
    "eventid": 197508260002,
    "nkill": 0,
    "iyear": 1975,
    "latitude": "48.113475",
    "longitude": "-1.675708",
    "gname": "Breton Liberation Front (FLB)"
  },
  {
    "eventid": 197508270001,
    "nkill": 1,
    "iyear": 1975,
    "latitude": "54.607712",
    "longitude": "-5.95621",
    "gname": "Irish Republican Extremists"
  },
  {
    "eventid": 197508270002,
    "nkill": 1,
    "iyear": 1975,
    "latitude": "54.607712",
    "longitude": "-5.95621",
    "gname": "Ulster Volunteer Force (UVF)"
  },
  {
    "eventid": 197508290001,
    "nkill": 1,
    "iyear": 1975,
    "latitude": "54.607712",
    "longitude": "-5.95621",
    "gname": "Protestant extremists"
  },
  {
    "eventid": 197508290003,
    "nkill": 1,
    "iyear": 1975,
    "latitude": "51.504387",
    "longitude": "-0.140041",
    "gname": "Irish Republican Army (IRA)"
  },
  {
    "eventid": 197508300001,
    "iyear": 1975,
    "latitude": "51.504387",
    "longitude": "-0.140041",
    "gname": "Irish Republican Army (IRA)"
  },
  {
    "eventid": 197508300002,
    "nkill": 1,
    "iyear": 1975,
    "latitude": "54.223033",
    "longitude": "-6.486782",
    "gname": "Irish Republican Army (IRA)"
  },
  {
    "eventid": 197508300003,
    "nkill": 2,
    "iyear": 1975,
    "latitude": "54.607712",
    "longitude": "-5.95621",
    "gname": "Ulster Freedom Fighters (UFF)"
  },
  {
    "eventid": 197508310001,
    "nkill": 1,
    "iyear": 1975,
    "latitude": "54.291162",
    "longitude": "-6.732317",
    "gname": "Irish Republican Army (IRA)"
  },
  {
    "eventid": 197509010001,
    "nkill": 1,
    "iyear": 1975,
    "latitude": "54.446614",
    "longitude": "-6.690752",
    "gname": "Ulster Volunteer Force (UVF)"
  },
  {
    "eventid": 197509010002,
    "nkill": 1,
    "iyear": 1975,
    "latitude": "54.607712",
    "longitude": "-5.95621",
    "gname": "Irish Republican Extremists"
  },
  {
    "eventid": 197509010003,
    "nkill": 5,
    "iyear": 1975,
    "latitude": "54.192934",
    "longitude": "-6.576051",
    "gname": "Republican Action Force"
  },
  {
    "eventid": 197509010004,
    "nkill": 1,
    "iyear": 1975,
    "latitude": "54.717098",
    "longitude": "-6.003242",
    "gname": "Ulster Volunteer Force (UVF)"
  },
  {
    "eventid": 197509020001,
    "nkill": 1,
    "iyear": 1975,
    "latitude": "54.607712",
    "longitude": "-5.95621",
    "gname": "Irish Republican Extremists"
  },
  {
    "eventid": 197509030001,
    "iyear": 1975,
    "latitude": "3.138943",
    "longitude": "101.691315",
    "gname": "Communist Party of Malaysia- Marxist-Leninist"
  },
  {
    "eventid": 197509030002,
    "iyear": 1975,
    "latitude": "43.258434",
    "longitude": "-2.921819",
    "gname": "Anti-Terrorism ETA (ATE)"
  },
  {
    "eventid": 197509030003,
    "nkill": 2,
    "iyear": 1975,
    "latitude": "54.607712",
    "longitude": "-5.95621",
    "gname": "Protestant extremists"
  },
  {
    "eventid": 197509050001,
    "iyear": 1975,
    "latitude": "39.470239",
    "longitude": "-0.376805",
    "gname": "Anti-Terrorism ETA (ATE)"
  },
  {
    "eventid": 197509050002,
    "nkill": 0,
    "iyear": 1975,
    "latitude": "40.759505",
    "longitude": "-111.888229",
    "gname": "Weather Underground, Weathermen"
  },
  {
    "eventid": 197509050003,
    "nkill": 2,
    "iyear": 1975,
    "latitude": "51.504387",
    "longitude": "-0.140041",
    "gname": "Irish Republican Army (IRA)"
  },
  {
    "eventid": 197509050004,
    "nkill": 0,
    "iyear": 1975,
    "latitude": "38.579065",
    "longitude": "-121.491014",
    "gname": "Supporters of Charles Manson"
  },
  {
    "eventid": 197509070001,
    "nkill": 1,
    "iyear": 1975,
    "latitude": "54.787715",
    "longitude": "-6.492314",
    "gname": "Ulster Volunteer Force (UVF)"
  },
  {
    "eventid": 197509080001,
    "nkill": 1,
    "iyear": 1975,
    "latitude": "4.667128",
    "longitude": "-74.106056",
    "gname": "National Liberation Army of Colombia (ELN)"
  },
  {
    "eventid": 197509080002,
    "iyear": 1975,
    "latitude": "50.553861",
    "longitude": "9.674339",
    "gname": "Unknown"
  },
  {
    "eventid": 197509080003,
    "nkill": 1,
    "iyear": 1975,
    "latitude": "54.607712",
    "longitude": "-5.95621",
    "gname": "Irish Republican Army (IRA)"
  },
  {
    "eventid": 197509080004,
    "nkill": 1,
    "iyear": 1975,
    "latitude": "54.855103",
    "longitude": "-5.811254",
    "gname": "Protestant extremists"
  },
  {
    "eventid": 197509080005,
    "nkill": 1,
    "iyear": 1975,
    "latitude": "54.411142",
    "longitude": "-6.600146",
    "gname": "Protestant extremists"
  },
  {
    "eventid": 197509090001,
    "nkill": 0,
    "iyear": 1975,
    "latitude": "",
    "longitude": "",
    "gname": "Basque Fatherland and Freedom (ETA)"
  },
  {
    "eventid": 197509090002,
    "nkill": 0,
    "iyear": 1975,
    "latitude": "43.189944",
    "longitude": "-2.052454",
    "gname": "Basque Fatherland and Freedom (ETA)"
  },
  {
    "eventid": 197509090005,
    "nkill": 1,
    "iyear": 1975,
    "latitude": "54.607712",
    "longitude": "-5.95621",
    "gname": "Protestant extremists"
  },
  {
    "eventid": 197509110001,
    "nkill": 0,
    "iyear": 1975,
    "latitude": "38.725299",
    "longitude": "-9.150036",
    "gname": "Revolutionary Internationalist Solidarity"
  },
  {
    "eventid": 197509110002,
    "nkill": 0,
    "iyear": 1975,
    "latitude": "38.725299",
    "longitude": "-9.150036",
    "gname": "Revolutionary Internationalist Solidarity"
  },
  {
    "eventid": 197509110003,
    "nkill": 0,
    "iyear": 1975,
    "latitude": "38.725299",
    "longitude": "-9.150036",
    "gname": "Revolutionary Internationalist Solidarity"
  },
  {
    "eventid": 197509110004,
    "nkill": 0,
    "iyear": 1975,
    "latitude": "39.470239",
    "longitude": "-0.376805",
    "gname": "Revolutionary Patriotic Anti-Fascist Front (FRAP)"
  },
  {
    "eventid": 197509110005,
    "nkill": 0,
    "iyear": 1975,
    "latitude": "39.470239",
    "longitude": "-0.376805",
    "gname": "Revolutionary Patriotic Anti-Fascist Front (FRAP)"
  },
  {
    "eventid": 197509120001,
    "nkill": 0,
    "iyear": 1975,
    "latitude": "15.333513",
    "longitude": "38.933652",
    "gname": "Eritrean Liberation Front"
  },
  {
    "eventid": 197509120002,
    "nkill": 0,
    "iyear": 1975,
    "latitude": "33.44826",
    "longitude": "-112.075774",
    "gname": "New World Liberation Front (NWLF)"
  },
  {
    "eventid": 197509120003,
    "nkill": 0,
    "iyear": 1975,
    "latitude": "47.610786",
    "longitude": "-122.331306",
    "gname": "New World Liberation Front (NWLF)"
  },
  {
    "eventid": 197509120004,
    "nkill": 0,
    "iyear": 1975,
    "latitude": "56.208208",
    "longitude": "-3.149518",
    "gname": "Army for Freeing Scotland"
  },
  {
    "eventid": 197509120005,
    "nkill": 1,
    "iyear": 1975,
    "latitude": "54.543446",
    "longitude": "-6.039963",
    "gname": "Irish Republican Extremists"
  },
  {
    "eventid": 197509130001,
    "nkill": 0,
    "iyear": 1975,
    "latitude": "53.553813",
    "longitude": "9.991586",
    "gname": "Unknown"
  },
  {
    "eventid": 197509140001,
    "nkill": 1,
    "iyear": 1975,
    "latitude": "41.400635",
    "longitude": "2.150913",
    "gname": "Revolutionary Patriotic Anti-Fascist Front (FRAP)"
  },
  {
    "eventid": 197509140002,
    "nkill": 1,
    "iyear": 1975,
    "latitude": "54.607712",
    "longitude": "-5.95621",
    "gname": "Protestant extremists"
  },
  {
    "eventid": 197509140003,
    "nkill": 0,
    "iyear": 1975,
    "latitude": "47.610786",
    "longitude": "-122.331306",
    "gname": "George Jackson Brigade"
  },
  {
    "eventid": 197509150001,
    "nkill": 0,
    "iyear": 1975,
    "latitude": "37.99749",
    "longitude": "23.762728",
    "gname": "Unknown"
  },
  {
    "eventid": 197509150002,
    "iyear": 1975,
    "latitude": "43.291618",
    "longitude": "-1.977903",
    "gname": "Basque Fatherland and Freedom (ETA)"
  },
  {
    "eventid": 197509150003,
    "nkill": 0,
    "iyear": 1975,
    "latitude": "40.465595",
    "longitude": "-3.696263",
    "gname": "Palestinians"
  },
  {
    "eventid": 197509160001,
    "nkill": 0,
    "iyear": 1975,
    "latitude": "48.856644",
    "longitude": "2.34233",
    "gname": "Basque Fatherland and Freedom (ETA)"
  },
  {
    "eventid": 197509160002,
    "iyear": 1975,
    "latitude": "43.320664",
    "longitude": "-3.020252",
    "gname": "Unknown"
  },
  {
    "eventid": 197509180001,
    "nkill": 0,
    "iyear": 1975,
    "latitude": "47.610786",
    "longitude": "-122.331306",
    "gname": "George Jackson Brigade"
  },
  {
    "eventid": 197509180002,
    "nkill": 1,
    "iyear": 1975,
    "latitude": "54.607712",
    "longitude": "-5.95621",
    "gname": "Protestant extremists"
  },
  {
    "eventid": 197509190001,
    "iyear": 1975,
    "latitude": "41.400635",
    "longitude": "2.150913",
    "gname": "Unknown"
  },
  {
    "eventid": 197509190002,
    "iyear": 1975,
    "latitude": "41.400635",
    "longitude": "2.150913",
    "gname": "Unknown"
  },
  {
    "eventid": 197509190003,
    "nkill": 1,
    "iyear": 1975,
    "latitude": "39.759881",
    "longitude": "-84.189983",
    "gname": "White supremacists/nationalists"
  },
  {
    "eventid": 197509220001,
    "nkill": 0,
    "iyear": 1975,
    "latitude": "37.755363",
    "longitude": "-122.443352",
    "gname": "Left-wing extremists"
  },
  {
    "eventid": 197509220002,
    "nkill": 0,
    "iyear": 1975,
    "latitude": "55.865627",
    "longitude": "-4.257223",
    "gname": "Army for Freeing Scotland"
  },
  {
    "eventid": 197509220003,
    "iyear": 1975,
    "latitude": "51.504387",
    "longitude": "-0.140041",
    "gname": "Irish Republican Army (IRA)"
  },
  {
    "eventid": 197509230001,
    "nkill": 0,
    "iyear": 1975,
    "latitude": "56.386618",
    "longitude": "-3.347748",
    "gname": "Army for Freeing Scotland"
  },
  {
    "eventid": 197509230002,
    "nkill": 1,
    "iyear": 1975,
    "latitude": "54.42071",
    "longitude": "-6.443767",
    "gname": "Irish Republican Army (IRA)"
  },
  {
    "eventid": 197509240001,
    "iyear": 1975,
    "latitude": "",
    "longitude": "",
    "gname": "East Asia Anti Japanese Armed Front"
  },
  {
    "eventid": 197509240002,
    "iyear": 1975,
    "latitude": "",
    "longitude": "",
    "gname": "East Asia Anti Japanese Armed Front"
  },
  {
    "eventid": 197509240003,
    "iyear": 1975,
    "latitude": "41.106178",
    "longitude": "28.689863",
    "gname": "Unknown"
  },
  {
    "eventid": 197509250001,
    "nkill": 0,
    "iyear": 1975,
    "latitude": "43.604652",
    "longitude": "1.444209",
    "gname": "International Revolutionary Action Group (GARI)"
  },
  {
    "eventid": 197509250002,
    "nkill": 0,
    "iyear": 1975,
    "latitude": "48.856644",
    "longitude": "2.34233",
    "gname": "International Revolutionary Action Group (GARI)"
  },
  {
    "eventid": 197509250003,
    "iyear": 1975,
    "latitude": "52.069858",
    "longitude": "4.291111",
    "gname": "International Revolutionary Action Group (GARI)"
  },
  {
    "eventid": 197509250004,
    "nkill": 0,
    "iyear": 1975,
    "latitude": "38.725299",
    "longitude": "-9.150036",
    "gname": "International Revolutionary Action Group (GARI)"
  },
  {
    "eventid": 197509250005,
    "nkill": 0,
    "iyear": 1975,
    "latitude": "46.198392",
    "longitude": "6.142296",
    "gname": "International Revolutionary Action Group (GARI)"
  },
  {
    "eventid": 197509250006,
    "nkill": 0,
    "iyear": 1975,
    "latitude": "39.930771",
    "longitude": "32.76754",
    "gname": "International Revolutionary Action Group (GARI)"
  },
  {
    "eventid": 197509250007,
    "iyear": 1975,
    "latitude": "51.270337",
    "longitude": "0.523841",
    "gname": "Irish Republican Army (IRA)"
  },
  {
    "eventid": 197509260002,
    "iyear": 1975,
    "latitude": "25.774591",
    "longitude": "-80.214195",
    "gname": "Unknown"
  },
  {
    "eventid": 197509260003,
    "nkill": 1,
    "iyear": 1975,
    "latitude": "56.55163",
    "longitude": "-5.30471",
    "gname": "Irish National Liberation Army (INLA)"
  },
  {
    "eventid": 197509270001,
    "nkill": 0,
    "iyear": 1975,
    "latitude": "4.667128",
    "longitude": "-74.106056",
    "gname": "Military Liberation Front of Colombia"
  },
  {
    "eventid": 197509290001,
    "nkill": 1,
    "iyear": 1975,
    "latitude": "48.218878",
    "longitude": "-4.164362",
    "gname": "Breton Liberation Front (FLB)"
  },
  {
    "eventid": 197509290002,
    "nkill": 0,
    "iyear": 1975,
    "latitude": "40.465595",
    "longitude": "-3.696263",
    "gname": "Unknown"
  },
  {
    "eventid": 197509290003,
    "iyear": 1975,
    "latitude": "40.465595",
    "longitude": "-3.696263",
    "gname": "Unknown"
  },
  {
    "eventid": 197509290004,
    "iyear": 1975,
    "latitude": "40.465595",
    "longitude": "-3.696263",
    "gname": "Unknown"
  },
  {
    "eventid": 197509290005,
    "iyear": 1975,
    "latitude": "40.465595",
    "longitude": "-3.696263",
    "gname": "Unknown"
  },
  {
    "eventid": 197509290006,
    "iyear": 1975,
    "latitude": "40.465595",
    "longitude": "-3.696263",
    "gname": "Unknown"
  },
  {
    "eventid": 197509290007,
    "iyear": 1975,
    "latitude": "40.465595",
    "longitude": "-3.696263",
    "gname": "Unknown"
  },
  {
    "eventid": 197509290008,
    "iyear": 1975,
    "latitude": "41.400635",
    "longitude": "2.150913",
    "gname": "Revolutionary Patriotic Anti-Fascist Front (FRAP)"
  },
  {
    "eventid": 197510000001,
    "nkill": 1,
    "iyear": 1975,
    "latitude": "51.504387",
    "longitude": "-0.140041",
    "gname": "Irish Republican Army (IRA)"
  },
  {
    "eventid": 197510010001,
    "nkill": 1,
    "iyear": 1975,
    "latitude": "40.465595",
    "longitude": "-3.696263",
    "gname": "First of October Antifascist Resistance Group (GRAPO)"
  },
  {
    "eventid": 197510010002,
    "nkill": 1,
    "iyear": 1975,
    "latitude": "40.465595",
    "longitude": "-3.696263",
    "gname": "First of October Antifascist Resistance Group (GRAPO)"
  },
  {
    "eventid": 197510010003,
    "nkill": 1,
    "iyear": 1975,
    "latitude": "40.465595",
    "longitude": "-3.696263",
    "gname": "First of October Antifascist Resistance Group (GRAPO)"
  },
  {
    "eventid": 197510010004,
    "nkill": 1,
    "iyear": 1975,
    "latitude": "40.465595",
    "longitude": "-3.696263",
    "gname": "First of October Antifascist Resistance Group (GRAPO)"
  },
  {
    "eventid": 197510010005,
    "nkill": 0,
    "iyear": 1975,
    "latitude": "40.465595",
    "longitude": "-3.696263",
    "gname": "Unknown"
  },
  {
    "eventid": 197510020001,
    "nkill": 0,
    "iyear": 1975,
    "latitude": "40.964968",
    "longitude": "-5.663025",
    "gname": "Unknown"
  },
  {
    "eventid": 197510020002,
    "nkill": 4,
    "iyear": 1975,
    "latitude": "54.607712",
    "longitude": "-5.95621",
    "gname": "Ulster Volunteer Force (UVF)"
  },
  {
    "eventid": 197510020003,
    "nkill": 1,
    "iyear": 1975,
    "latitude": "54.607712",
    "longitude": "-5.95621",
    "gname": "Ulster Volunteer Force (UVF)"
  },
  {
    "eventid": 197510020004,
    "nkill": 1,
    "iyear": 1975,
    "latitude": "54.663228",
    "longitude": "-6.276696",
    "gname": "Ulster Volunteer Force (UVF)"
  },
  {
    "eventid": 197510020005,
    "nkill": 1,
    "iyear": 1975,
    "latitude": "54.401305",
    "longitude": "-5.649401",
    "gname": "Ulster Volunteer Force (UVF)"
  },
  {
    "eventid": 197510020006,
    "nkill": 1,
    "iyear": 1975,
    "latitude": "54.607712",
    "longitude": "-5.95621",
    "gname": "Ulster Volunteer Force (UVF)"
  },
  {
    "eventid": 197510030001,
    "nkill": 0,
    "iyear": 1975,
    "latitude": "53.361675",
    "longitude": "-6.245485",
    "gname": "Irish Republican Army (IRA)"
  },
  {
    "eventid": 197510030002,
    "nkill": 1,
    "iyear": 1975,
    "latitude": "54.607712",
    "longitude": "-5.95621",
    "gname": "Irish Republican Army (IRA)"
  },
  {
    "eventid": 197510030003,
    "nkill": 1,
    "iyear": 1975,
    "latitude": "54.607712",
    "longitude": "-5.95621",
    "gname": "Irish Republican Army (IRA)"
  },
  {
    "eventid": 197510040001,
    "nkill": 3,
    "iyear": 1975,
    "latitude": "43.032888",
    "longitude": "-2.411348",
    "gname": "Basque Fatherland and Freedom (ETA)"
  },
  {
    "eventid": 197510040002,
    "nkill": 3,
    "iyear": 1975,
    "latitude": "33.888523",
    "longitude": "35.503513",
    "gname": "Popular Front for the Liberation of Palestine (PFLP)"
  },
  {
    "eventid": 197510040003,
    "nkill": 0,
    "iyear": 1975,
    "latitude": "43.659145",
    "longitude": "-70.256654",
    "gname": "United Freedom Front (UFF)"
  },
  {
    "eventid": 197510050001,
    "nkill": 1,
    "iyear": 1975,
    "latitude": "43.130387",
    "longitude": "-2.542155",
    "gname": "Anti-Terrorism ETA (ATE)"
  },
  {
    "eventid": 197510050002,
    "iyear": 1975,
    "latitude": "43.032888",
    "longitude": "-2.411348",
    "gname": "Basque Fatherland and Freedom (ETA)"
  },
  {
    "eventid": 197510050003,
    "nkill": 26,
    "iyear": 1975,
    "latitude": "-26.184895",
    "longitude": "-58.175415",
    "gname": "Montoneros (Argentina)"
  },
  {
    "eventid": 197510050004,
    "nkill": 1,
    "iyear": 1975,
    "latitude": "53.361675",
    "longitude": "-6.245485",
    "gname": "Official Irish Republican Army (OIRA)"
  },
  {
    "eventid": 197510060001,
    "nkill": 0,
    "iyear": 1975,
    "latitude": "49.45052",
    "longitude": "11.08048",
    "gname": "Unknown"
  },
  {
    "eventid": 197510060002,
    "nkill": 0,
    "iyear": 1975,
    "latitude": "41.400635",
    "longitude": "2.150913",
    "gname": "Unknown"
  },
  {
    "eventid": 197510060004,
    "nkill": 1,
    "iyear": 1975,
    "latitude": "55.050852",
    "longitude": "-6.950535",
    "gname": "Irish Republican Army (IRA)"
  },
  {
    "eventid": 197510060005,
    "nkill": 0,
    "iyear": 1975,
    "latitude": "25.774591",
    "longitude": "-80.214195",
    "gname": "National Front for the Liberation of Cuba (FLNC)"
  },
  {
    "eventid": 197510080001,
    "nkill": 0,
    "iyear": 1975,
    "latitude": "48.856644",
    "longitude": "2.34233",
    "gname": "Armed Nucleus for Popular Autonomy"
  },
  {
    "eventid": 197510080002,
    "iyear": 1975,
    "latitude": "49.993038",
    "longitude": "8.247247",
    "gname": "Commando 27 September"
  },
  {
    "eventid": 197510080003,
    "nkill": 0,
    "iyear": 1975,
    "latitude": "50.11797",
    "longitude": "8.644191",
    "gname": "Revolutionary Cells"
  },
  {
    "eventid": 197510080004,
    "nkill": 0,
    "iyear": 1975,
    "latitude": "-34.61768",
    "longitude": "-58.444435",
    "gname": "Unknown"
  },
  {
    "eventid": 197510080005,
    "iyear": 1975,
    "latitude": "41.400635",
    "longitude": "2.150913",
    "gname": "Revolutionary Patriotic Anti-Fascist Front (FRAP)"
  },
  {
    "eventid": 197510090001,
    "iyear": 1975,
    "latitude": "51.504387",
    "longitude": "-0.140041",
    "gname": "Irish Republican Army (IRA)"
  },
  {
    "eventid": 197510090002,
    "nkill": 1,
    "iyear": 1975,
    "latitude": "51.504387",
    "longitude": "-0.140041",
    "gname": "Irish Republican Army (IRA)"
  },
  {
    "eventid": 197510090003,
    "nkill": 3,
    "iyear": 1975,
    "latitude": "33.888523",
    "longitude": "35.503513",
    "gname": "Palestinians"
  },
  {
    "eventid": 197510090004,
    "nkill": 1,
    "iyear": 1975,
    "latitude": "54.077313",
    "longitude": "-6.608787",
    "gname": "Irish Republican Army (IRA)"
  },
  {
    "eventid": 197510100001,
    "nkill": 1,
    "iyear": 1975,
    "latitude": "40.465595",
    "longitude": "-3.696263",
    "gname": "First of October Antifascist Resistance Group (GRAPO)"
  },
  {
    "eventid": 197510100002,
    "nkill": 1,
    "iyear": 1975,
    "latitude": "40.465595",
    "longitude": "-3.696263",
    "gname": "First of October Antifascist Resistance Group (GRAPO)"
  },
  {
    "eventid": 197510100003,
    "iyear": 1975,
    "latitude": "48.856644",
    "longitude": "2.34233",
    "gname": "Baader-Meinhof Group"
  },
  {
    "eventid": 197510100004,
    "nkill": 0,
    "iyear": 1975,
    "latitude": "26.12367",
    "longitude": "-80.143564",
    "gname": "National Front for the Liberation of Cuba (FLNC)"
  },